     2.11           OBSERVATION DATA    M (MIXED)           RINEX VERSION / TYPE
teqc  2018Dec12                         20190103 11:53:57UTCPGM / RUN BY / DATE
Linux2.6.32-573.12.1.el6.x86_64|x86_64|gcc|Win64-MinGW64|=+ COMMENT
teqc  2018Dec12                         20190103 11:53:56UTCCOMMENT
teqc  2016Apr1      bjfs                20180504 00:25:03UTCCOMMENT
Linux 2.4.21-27.ELsmp|Opteron|gcc|Linux x86_64|=+           COMMENT
BIT 2 OF LLI FLAGS DATA COLLECTED UNDER A/S CONDITION       COMMENT
BJFS                                                        MARKER NAME
21601M001                                                   MARKER NUMBER
GNSS Observer       CASM                                    OBSERVER / AGENCY
5310K42306          TRIMBLE NETR9       4.85                REC # / TYPE / VERS
5317361110          TRM59900.00     SCIS                    ANT # / TYPE
 -2148744.5726  4426641.4062  4044655.8548                  APPROX POSITION XYZ
        0.0465        0.0000        0.0000                  ANTENNA: DELTA H/E/N
     1     1                                                WAVELENGTH FACT L1/2
     5    L1    L2    C1    P1    P2                        # / TYPES OF OBSERV
    18                                                      LEAP SECONDS
 SNR is mapped to RINEX snr flag value [0-9]                COMMENT
  L1 & L2: min(max(int(snr_dBHz/6), 0), 9)                  COMMENT
teqc edited: all GLONASS satellites excluded                COMMENT
  2018     5     3     0     0    0.0000000     GPS         TIME OF FIRST OBS
                                                            END OF HEADER
 18  5  3  0  0  0.0000000  0 10G29G26G10G32G25G12G14G22G31G03
 127402992.759 6  99275077.87243  24243982.688                    24243988.094
 121539034.349 7  94705779.56844  23128106.172                    23128114.098
 120423135.990 7  93836265.91044  22915770.570                    22915778.602
 107984865.920 8  84144108.90747  20548843.383                    20548850.352
 110895072.696 7  86411779.08246  21102632.453                    21102639.777
 124826848.408 7  97267686.41743  23753761.547                    23753766.324
 109002243.231 8  84936817.79246  20742432.570                    20742437.055
 122096357.753 7  95140016.19744  23234162.602                    23234165.215
 108215818.299 8  84324037.88047  20592786.578                    20592790.941
 128968229.301 6 100494767.02443  24541842.680                    24541850.418
 18  5  3  0  0 30.0000000  0 10G29G26G10G32G25G12G14G22G31G03
 127323296.018 6  99212976.52743  24228815.992                    24228823.188
 121432128.943 7  94622476.68644  23107762.406                    23107770.922
 120529400.307 6  93919069.24044  22935991.992                    22935999.969
 108003133.970 8  84158343.74647  20552320.172                    20552327.070
 110938661.709 7  86445744.53646  21110927.313                    21110934.602
 124928480.946 6  97346880.57244  23773101.453                    23773106.602
 108966894.494 8  84909273.31346  20735705.781                    20735710.340
 122042332.692 7  95097918.74044  23223882.086                    23223884.621
 108192492.076 8  84305861.60147  20588347.703                    20588352.207
 128879449.105 6 100425587.62943  24524947.906                    24524955.820
 18  5  3  0  1  0.0000000  0 10G29G26G10G32G25G12G14G22G31G03
 127243768.311 6  99151006.98343  24213682.430                    24213689.406
 121325437.411 7  94539340.44744  23087459.742                    23087468.039
 120635854.612 6  94002020.61244  22956249.578                    22956257.820
 108021804.252 8  84172892.00447  20555872.516                    20555880.035
 110982820.751 7  86480154.16746  21119330.289                    21119337.504
 125030377.091 7  97426280.12243  23792491.703                    23792497.125
 108931829.765 8  84881950.15646  20729033.047                    20729037.906
 121988761.933 7  95056175.29645  23213687.648                    23213691.027
 108169490.564 8  84287938.34547  20583970.898                    20583975.359
 128790982.400 6 100356652.59443  24508113.883                    24508121.996
 18  5  3  0  1 30.0000000  0 10G29G26G10G32G25G12G14G22G31G03
 127164412.415 6  99089171.21843  24198582.094                    24198588.004
 121218961.444 7  94456372.18244  23067198.156                    23067206.082
 120742495.368 7  94085117.28144  22976543.023                    22976551.121
 108040876.708 8  84187753.64547  20559502.008                    20559509.391
 111027547.136 7  86515005.88846  21127841.258                    21127848.914
 125132532.814 6  97505881.95643  23811931.227                    23811936.191
 108897050.035 8  84854849.06146  20722414.742                    20722419.465
 121935646.768 7  95014786.85244  23203579.961                    23203582.965
 108146812.986 8  84270267.50547  20579655.266                    20579659.945
 128702831.072 6 100287963.23143  24491339.211                    24491347.266
 18  5  3  0  2  0.0000000  0 10G29G26G10G32G25G12G14G22G31G03
 127085231.428 6  99027471.78343  24183514.227                    24183519.973
 121112702.992 7  94373573.40344  23046977.523                    23046986.305
 120849319.213 7  94168356.60744  22996870.570                    22996878.691
 108060351.430 8  84202928.74547  20563207.789                    20563214.758
 111072838.448 7  86550297.81046  21136459.977                    21136467.367
 125234945.063 6  97585683.65743  23831419.586                    23831425.176
 108862556.266 8  84827970.79646  20715850.977                    20715855.551
 121882988.083 7  94973754.11344  23193559.164                    23193562.227
 108124458.318 8  84252848.28347  20575401.602                    20575405.828
 128614997.283 6 100219521.33443  24474625.070                    24474632.281
 18  5  3  0  2 30.0000000  0 10G29G26G10G32G25G12G14G22G31G03
 127006228.357 6  98965911.03343  24168480.602                    24168487.355
 121006664.514 7  94290946.04844  23026799.281                    23026807.633
 120956323.360 6  94251736.42144  23017232.914                    23017240.832
 108080229.098 8  84218417.82247  20566990.789                    20566997.746
 111118692.759 7  86586028.43146  21145185.578                    21145193.457
 125337611.128 6  97665683.15743  23850956.336                    23850961.273
 108828349.670 7  84801316.30546  20709341.695                    20709345.887
 121830787.611 7  94933078.41544  23183625.758                    23183629.004
 108102425.848 8  84235680.12047  20571209.008                    20571213.301
 128527483.795 6 100151329.00043  24457971.273                    24457979.016
 18  5  3  0  3  0.0000000  0 10G29G26G10G32G25G12G14G22G31G03
 126927408.235 6  98904492.79743  24153481.141                    24153488.285
 120900850.011 7  94208493.21444  23006663.867                    23006672.367
 121063506.568 6  94335255.77544  23037629.641                    23037637.277
 108100511.891 8  84234222.58147  20570850.383                    20570857.613
 111165109.685 7  86622197.45446  21154018.859                    21154026.113
 125440529.581 6  97745879.31743  23870541.250                    23870546.469
 108794434.175 7  84774888.64746  20702887.773                    20702892.102
 121779048.649 7  94892762.31744  23173780.680                    23173782.957
 108080716.867 8  84218764.02547  20567077.469                    20567081.980
 128440294.663 6 100083389.43843  24441379.063                    24441388.152
 18  5  3  0  3 30.0000000  0 10G29G26G10G32G25G12G14G22G31G03
 126848772.078 6  98843217.88243  24138516.898                    24138523.680
 120795259.458 7  94126214.88344  22986569.930                    22986578.605
 121170863.523 6  94418910.51144  23058058.641                    23058066.855
 108121197.895 8  84250341.52947  20574786.680                    20574793.645
 111212084.699 8  86658801.35646  21162957.883                    21162965.414
 125543695.046 6  97826267.95643  23890173.023                    23890178.168
 108760808.584 8  84748686.88846  20696488.992                    20696493.492
 121727770.545 7  94852805.34544  23164022.586                    23164025.563
 108059328.194 8  84202097.52947  20563007.859                    20563012.066
 128353430.198 6 100015702.89143  24424849.430                    24424858.672
 18  5  3  0  4  0.0000000  0 10G29G26G10G32G25G12G14G22G31G03
 126770325.425 6  98782090.65743  24123589.367                    24123596.242
 120689897.670 7  94044114.81544  22966520.227                    22966529.086
 121278393.792 6  94502700.29244  23078521.297                    23078528.938
 108142290.194 8  84266777.07347  20578800.500                    20578807.434
 111259618.288 8  86695840.51346  21172003.398                    21172010.457
 125647107.311 6  97906848.88643  23909851.703                    23909856.453
 108727476.844 7  84722714.10946  20690146.258                    20690150.449
 121676957.236 7  94813210.56144  23154353.156                    23154356.152
 108038262.088 8  84185682.38047  20558999.047                    20559003.203
 128266895.359 6  99948273.10543  24408382.555                    24408390.711
 18  5  3  0  4 30.0000000  0 10G29G26G10G32G25G12G14G22G31G03
 126692069.263 6  98721111.88743  24108697.492                    24108704.184
 120584764.958 7  93962193.25445  22946514.297                    22946522.813
 121386092.467 6  94586621.30944  23099015.586                    23099023.449
 108163787.197 8  84283527.96847  20582891.008                    20582898.137
 111307706.291 7  86733311.67446  21181154.141                    21181161.371
 125750761.002 6  97987617.94643  23929576.438                    23929581.574
 108694438.383 7  84696969.85146  20683859.016                    20683863.402
 121626608.392 7  94773977.69944  23144771.578                    23144775.410
 108017515.941 8  84169516.55347  20555051.078                    20555055.262
 128180690.769 6  99881100.74643  24391977.609                    24391986.211
 18  5  3  0  5  0.0000000  0 10G29G26G10G32G25G12G14G22G31G03
 126614007.745 6  98660284.75643  24093843.125                    24093848.957
 120479864.838 7  93880452.92644  22926552.594                    22926561.320
 121493957.780 7  94670672.17144  23119541.898                    23119549.820
 108185690.572 8  84300595.51747  20587059.438                    20587066.434
 111356347.692 7  86771214.06446  21190410.219                    21190417.625
 125854654.523 6  98068573.87543  23949346.281                    23949351.383
 108661695.849 8  84671456.18746  20677628.930                    20677633.105
 121576726.589 7  94735108.76344  23135279.992                    23135282.711
 107997089.913 8  84153600.16347  20551164.266                    20551168.031
 128094820.037 6  99814188.51143  24375637.453                    24375645.457
 18  5  3  0  5 30.0000000  0 10G29G26G10G32G25G12G14G22G31G03
 126536144.373 6  98599612.02343  24079026.320                    24079032.473
 120375199.521 7  93798895.57544  22906635.078                    22906644.012
 121601986.732 6  94754850.52844  23140099.188                    23140107.129
 108208000.668 8  84317979.99847  20591304.500                    20591311.973
 111405540.264 7  86809545.93546  21199771.047                    21199778.547
 125958784.964 6  98149714.47943  23969162.172                    23969166.684
 108629250.744 8  84646174.28646  20671454.523                    20671458.906
 121527313.159 7  94696604.78844  23125876.680                    23125879.719
 107976983.561 8  84137932.87547  20547338.281                    20547342.496
 128009285.590 6  99747538.31143  24359361.414                    24359369.293
 18  5  3  0  6  0.0000000  0 10G29G26G10G32G25G12G14G22G31G03
 126458480.391 6  98539094.68443  24064246.695                    24064253.656
 120270769.689 7  93717521.70544  22886762.109                    22886771.500
 121710174.758 6  94839152.84544  23160686.352                    23160694.906
 108230716.379 8  84335680.54047  20595627.547                    20595634.203
 111455280.263 7  86848304.37246  21209236.414                    21209243.992
 126063147.654 6  98231036.00343  23989021.891                    23989027.313
 108597103.012 8  84621124.10546  20665336.703                    20665341.184
 121478368.137 7  94658465.81145  23116563.000                    23116565.426
 107957194.795 8  84122513.04847  20543572.508                    20543576.309
 127924088.387 6  99681150.92143  24343148.703                    24343156.508
 18  5  3  0  6 30.0000000  0 10G29G26G10G32G25G12G14G22G31G03
 126381021.482 6  98478737.11643  24049507.758                    24049513.957
 120166579.884 7  93636334.88444  22866935.484                    22866944.879
 121818521.155 6  94923578.56144  23181304.008                    23181312.359
 108253840.334 8  84353699.18647  20600027.633                    20600034.820
 111505567.686 7  86887489.37246  21218805.594                    21218813.320
 126167742.532 6  98312538.43443  24008926.055                    24008930.938
 108565256.274 8  84596308.47346  20659276.922                    20659281.008
 121429895.219 7  94620694.70345  23107338.820                    23107342.125
 107937725.263 8  84107341.97947  20539867.586                    20539871.734
 127839233.115 6  99615029.92943  24327001.859                    24327009.613
 18  5  3  0  7  0.0000000  0 10G29G26G10G32G25G12G14G22G31G03
 126303769.630 6  98418540.90843  24034806.844                    24034814.242
 120062631.312 7  93555336.03544  22847154.711                    22847163.961
 121927021.947 6  95008124.61244  23201951.484                    23201959.105
 108277371.869 8  84372035.43847  20604505.531                    20604512.918
 111556399.189 7  86927098.33346  21228478.563                    21228486.324
 126272564.518 6  98394217.88843  24028871.875                    24028877.977
 108533710.654 8  84571727.46746  20653273.547                    20653277.934
 121381894.440 7  94583291.48745  23098204.797                    23098207.738
 107918573.127 8  84092418.23947  20536222.969                    20536227.293
 127754721.212 6  99549176.52243  24310919.508                    24310927.355
 18  5  3  0  7 30.0000000  0 10G29G26G10G32G25G12G14G22G31G03
 126226729.017 6  98358509.31044  24020147.117                    24020153.559
 119958927.316 7  93474527.75544  22827420.945                    22827429.355
 122035675.221 6  95092789.45544  23222627.109                    23222635.016
 108301312.492 8  84390690.45347  20609061.531                    20609068.285
 111607773.675 7  86967130.40646  21238254.664                    21238262.266
 126377611.907 6  98476072.94043  24048861.906                    24048867.492
 108502469.122 8  84547383.41246  20647328.836                    20647332.836
 121334368.772 7  94546258.49945  23089160.891                    23089163.824
 107899738.902 8  84077742.21647  20532638.797                    20532643.000
 127670556.230 6  99483593.44143  24294903.203                    24294911.152
 18  5  3  0  8  0.0000000  0 10G29G26G10G32G25G12G14G22G31G03
 126149901.178 7  98298643.46944  24005526.516                    24005533.262
 119855468.620 7  93393910.61245  22807733.484                    22807742.125
 122144476.548 6  95177569.66744  23243331.320                    23243339.426
 108325661.034 8  84409663.32647  20613694.797                    20613701.680
 111659687.298 7  87007582.57846  21248133.758                    21248141.438
 126482880.683 6  98558100.50943  24068894.234                    24068899.465
 108471531.656 8  84523276.29346  20641441.398                    20641445.758
 121287318.004 7  94509595.56045  23080207.164                    23080209.734
 107881220.207 8  84063312.06247  20529114.797                    20529118.637
 127586739.127 6  99418281.42643  24278953.461                    24278960.684
 18  5  3  0  8 30.0000000  0 10G29G26G10G32G25G12G14G22G31G03
 126073290.464 6  98238946.84244  23990947.969                    23990954.938
 119752258.611 7  93313487.26845  22788093.445                    22788101.820
 122253424.060 6  95262463.79344  23264062.672                    23264071.703
 108350419.004 8  84428955.23647  20618406.156                    20618413.203
 111712138.941 7  87048453.98446  21258115.008                    21258122.539
 126588368.913 6  98640299.09443  24088968.508                    24088973.316
 108440900.651 8  84499407.97746  20635613.078                    20635617.145
 121240744.779 7  94473304.72644  23071344.773                    23071347.957
 107863017.533 8  84049128.16247  20525650.820                    20525655.168
 127503273.518 6  99353243.32643  24263070.148                    24263078.070
 18  5  3  0  9  0.0000000  0 10G29G26G10G32G25G12G14G22G31G03
 125996899.486 6  98179421.45944  23976411.258                    23976418.879
 119649298.874 7  93233258.93345  22768500.867                    22768509.246
 122362514.148 6  95347469.01144  23284822.797                    23284831.434
 108375586.094 8  84448565.94347  20623195.516                    20623202.199
 111765125.594 7  87089742.28746  21268197.734                    21268205.281
 126694073.095 6  98722665.92243  24109083.141                    24109088.043
 108410576.864 7  84475779.04946  20629841.945                    20629846.727
 121194649.609 7  94437386.39545  23062573.922                    23062576.074
 107845129.892 8  84035189.74347  20522247.367                    20522251.523
 127420161.148 6  99288480.47143  24247254.094                    24247261.926
 18  5  3  0  9 30.0000000  0 10G29G26G10G32G25G12G14G22G31G03
 125920733.282 6  98120071.18643  23961917.195                    23961923.859
 119546593.860 7  93153229.09345  22748956.266                    22748964.973
 122471746.082 6  95432584.75244  23305608.305                    23305616.875
 108401164.852 8  84468497.42247  20628062.906                    20628069.840
 111818647.170 7  87131447.41546  21278382.813                    21278390.254
 126799992.235 6  98805200.28843  24129238.383                    24129244.328
 108380563.799 7  84452392.23946  20624130.984                    20624135.605
 121149036.238 7  94401843.51245  23053893.461                    23053895.762
 107827558.726 8  84021497.92147  20518903.539                    20518907.938
 127337406.701 6  99223996.47143  24231506.055                    24231513.664
 18  5  3  0 10  0.0000000  0 10G29G26G10G32G25G12G14G22G31G03
 125844793.167 6  98060897.09143  23947466.117                    23947473.156
 119444143.657 7  93073397.79645  22729461.023                    22729469.254
 122581114.735 6  95517807.04744  23326421.086                    23326429.188
 108427153.488 8  84488748.29647  20633008.203                    20633015.371
 111872699.167 7  87173565.85346  21288668.539                    21288676.063
 126906121.425 6  98887898.29843  24149434.359                    24149439.668
 108350861.139 7  84429247.30846  20618478.883                    20618483.258
 121103903.481 7  94366675.11345  23045304.953                    23045307.012
 107810301.301 8  84008050.57847  20515619.773                    20515623.594
 127255010.516 6  99159791.64343  24215826.906                    24215834.121
 18  5  3  0 10 30.0000000  0 10G29G26G10G32G25G12G14G22G31G03
 125769082.692 7  98001901.97444  23933059.242                    23933066.137
 119341951.219 7  92993767.34545  22710014.250                    22710022.613
 122690617.944 6  95603134.18644  23347258.352                    23347266.816
 108453553.039 8  84509319.34947  20638031.898                    20638038.875
 111927279.970 7  87216096.34546  21299055.047                    21299062.563
 127012458.420 6  98970758.26343  24169669.578                    24169674.969
 108321470.830 7  84406345.76246  20612885.813                    20612890.473
 121059253.678 7  94331883.04845  23036808.836                    23036810.617
 107793357.703 8  83994847.77647  20512395.289                    20512399.613
 127172975.673 6  99095868.44443  24200216.211                    24200223.641
 18  5  3  0 11  0.0000000  0 10G29G26G10G32G25G12G14G22G31G03
 125693604.977 7  97943088.18543  23918696.203                    23918701.848
 119240018.585 7  92914339.34945  22690617.281                    22690625.488
 122800252.549 6  95688563.70644  23368121.195                    23368130.254
 108480363.666 8  84530210.73247  20643133.805                    20643140.930
 111982387.057 8  87259036.92946  21309541.867                    21309549.559
 127119000.140 6  99053777.75543  24189944.000                    24189949.277
 108292394.435 7  84383688.82746  20607352.797                    20607357.203
 121015087.744 7  94297468.03045  23028404.125                    23028406.387
 107776727.080 8  83981888.84647  20509230.492                    20509234.641
 127091304.464 6  99032228.54643  24184674.594                    24184682.086
 18  5  3  0 11 30.0000000  0 10G29G26G10G32G25G12G14G22G31G03
 125618363.566 6  97884458.54543  23904377.758                    23904384.793
 119138348.569 7  92835115.98445  22671269.492                    22671278.434
 122910016.100 6  95774093.70044  23389008.453                    23389017.535
 108507586.208 8  84551423.09047  20648314.094                    20648321.289
 112038018.576 7  87302386.15946  21320128.094                    21320135.324
 127225744.068 6  99136954.78642  24210256.438                    24210262.117
 108263633.523 7  84361277.72146  20601879.820                    20601884.035
 120971407.575 7  94263431.52444  23020091.734                    23020094.137
 107760409.169 8  83969173.59147  20506125.500                    20506129.789
 127009999.872 6  98968874.30743  24169203.266                    24169211.293
 18  5  3  0 12  0.0000000  0 10G29G26G10G32G25G12G14G22G31G03
 125543361.409 7  97826015.36943  23890104.906                    23890111.848
 119036943.064 7  92756098.71845  22651973.156                    22651981.711
 123019905.458 6  95859721.71144  23409920.180                    23409928.973
 108535220.668 8  84572956.41847  20653573.258                    20653580.000
 112094171.843 7  87346141.94546  21330813.398                    21330820.691
 127332687.213 6  99220287.05942  24230606.758                    24230612.645
 108235189.623 7  84339113.63946  20596467.031                    20596471.527
 120928214.295 7  94229774.41645  23011872.273                    23011874.535
 107744402.795 8  83956701.09247  20503079.438                    20503083.750
 126929064.025 6  98905807.42043  24153801.617                    24153809.559
 18  5  3  0 12 30.0000000  0 10G29G26G10G32G25G12G14G22G31G03
 125468601.279 7  97767760.73443  23875879.414                    23875885.832
 118935804.045 7  92677289.11945  22632727.086                    22632735.328
 123129917.362 6  95945445.22844  23430854.594                    23430863.281
 108563267.079 8  84594810.75047  20658909.875                    20658917.000
 112150844.185 7  87390302.20946  21341598.000                    21341605.676
 127439826.375 6  99303772.06342  24250995.000                    24251000.293
 108207063.643 7  84317197.29146  20591114.820                    20591119.363
 120885509.131 7  94196497.65445  23003745.672                    23003748.316
 107728707.602 8  83944471.06747  20500092.609                    20500096.961
 126848499.094 6  98843029.61043  24138470.344                    24138477.945
 18  5  3  0 13  0.0000000  0 10G29G26G10G32G25G12G14G22G31G03
 125394087.505 7  97709698.11343  23861698.977                    23861705.949
 118834934.918 7  92598689.80745  22613532.281                    22613540.801
 123240050.124 6  96031262.92144  23451812.078                    23451820.547
 108591726.940 8  84616987.25147  20664325.633                    20664333.289
 112208034.470 7  87434866.06146  21352480.680                    21352488.590
 127547159.500 6  99387408.21443  24271420.719                    24271425.445
 108179258.546 7  84295530.97646  20585823.523                    20585828.094
 120843294.208 7  94163602.91145  22995712.820                    22995714.797
 107713323.906 8  83932483.78047  20497165.102                    20497169.477
 126768308.737 6  98780543.58243  24123210.789                    24123218.660
 18  5  3  0 13 30.0000000  0 10G29G26G10G32G25G12G14G22G31G03
 125319822.298 7  97651829.16243  23847567.969                    23847573.359
 118734337.055 7  92520301.87245  22594388.914                    22594397.344
 123350299.999 6  96117171.88443  23472792.266                    23472800.836
 108620599.694 8  84639485.48747  20669820.063                    20669827.059
 112265739.364 7  87479830.90946  21363461.758                    21363469.109
 127654683.745 6  99471193.28743  24291880.672                    24291886.770
 108151774.900 7  84274115.14746  20580593.578                    20580598.547
 120801569.852 7  94131090.41144  22987772.938                    22987775.117
 107698250.113 8  83920737.96347  20494296.789                    20494301.219
 126688494.421 6  98718350.65243  24108022.836                    24108030.434
 18  5  3  0 14  0.0000000  0 10G29G26G10G32G25G12G14G22G31G03
 125245808.419 7  97594156.03943  23833482.523                    23833489.262
 118634011.720 7  92442126.29545  22575297.719                    22575305.688
 123460663.024 6  96203169.00844  23493793.820                    23493801.797
 108649884.613 8  84662304.90047  20675392.781                    20675399.746
 112323955.537 7  87525194.15946  21374539.727                    21374547.305
 127762394.395 6  99555123.63542  24312377.664                    24312383.332
 108124612.823 7  84252949.88647  20575424.766                    20575429.355
 120760336.231 7  94098960.31045  22979926.055                    22979928.496
 107683484.678 8  83909232.43447  20491486.828                    20491491.566
 126609057.697 7  98656451.91943  24092906.453                    24092913.801
 18  5  3  0 14 30.0000000  0 10G29G26G10G32G25G12G14G22G31G03
 125172050.080 7  97536682.05743  23819447.344                    23819454.051
 118533962.949 7  92364166.22345  22556259.063                    22556266.965
 123571138.167 6  96289253.49644  23514816.523                    23514824.840
 108679583.835 8  84685447.13447  20681044.063                    20681051.148
 112382682.289 7  87570955.26346  21385715.039                    21385722.727
 127870290.566 6  99639198.48842  24332909.281                    24332915.883
 108097775.976 7  84232038.05946  20570318.008                    20570322.770
 120719596.937 7  94067215.39345  22972174.117                    22972175.965
 107669028.745 8  83897968.07447  20488736.078                    20488740.480
 126530002.736 6  98594850.66043  24077862.547                    24077869.727
 18  5  3  0 15  0.0000000  0 10G29G26G10G32G25G12G14G22G31G03
 125098549.863 7  97479409.20143  23805460.531                    23805466.813
 118434192.013 7  92286422.63745  22537273.125                    22537280.910
 123681721.570 6  96375422.31344  23535859.703                    23535868.172
 108709696.647 8  84708911.65447  20686774.555                    20686781.492
 112441916.359 7  87617111.67246  21396986.875                    21396994.645
 127978368.584 6  99723415.10143  24353475.961                    24353482.129
 108071264.788 7  84211379.98246  20565273.281                    20565277.859
 120679351.790 7  94035855.53845  22964515.164                    22964517.734
 107654880.821 8  83886943.71847  20486043.398                    20486048.063
 126451331.073 6  98533548.06443  24062892.133                    24062899.832
 18  5  3  0 15 30.0000000  0 10G29G26G10G32G25G12G14G22G31G03
 125025311.253 7  97422340.18944  23791523.719                    23791530.574
 118334701.668 7  92208897.71545  22518341.047                    22518349.086
 123792410.962 6  96461673.74543  23556923.398                    23556931.242
 108740223.870 8  84732699.08947  20692583.984                    20692591.203
 112501655.779 7  87663661.86446  21408354.914                    21408362.563
 128086626.424 5  99807771.78842  24374076.953                    24374083.031
 108045081.489 7  84190977.40546  20560290.938                    20560295.254
 120639602.690 7  94004882.20845  22956951.070                    22956953.594
 107641040.847 8  83876159.32747  20483410.367                    20483414.777
 126373045.604 6  98472546.40943  24047994.836                    24048002.582
 18  5  3  0 16  0.0000000  0 10G29G26G10G32G25G12G14G22G31G03
 124952336.521 7  97365476.84143  23777636.305                    23777643.840
 118235493.348 7  92131592.53945  22499461.938                    22499470.766
 123903202.583 6  96548004.83444  23578006.469                    23578014.922
 108771164.945 8  84756809.01147  20698471.633                    20698478.270
 112561897.312 7  87710603.31646  21419818.961                    21419826.125
 128195060.068 5  99892265.45942  24394710.828                    24394717.191
 108019226.612 7  84170830.74547  20555370.773                    20555375.105
 120600349.891 7  93974295.60545  22949481.469                    22949484.047
 107627507.459 8  83865613.83647  20480834.789                    20480839.090
 126295148.016 6  98411847.01443  24033171.336                    24033178.449
 18  5  3  0 16 30.0000000  0 10G29G26G10G32G25G12G14G22G31G03
 124879629.988 7  97308822.42044  23763801.813                    23763807.852
 118136570.337 7  92054509.69145  22480637.922                    22480646.383
 124014094.652 6  96634414.18943  23599108.539                    23599116.676
 108802521.198 8  84781242.44247  20704438.680                    20704445.961
 112622639.578 7  87757934.94746  21431377.461                    21431384.938
 128303667.951 5  99976894.97842  24415379.164                    24415385.313
 107993702.649 7  84150941.94146  20550513.656                    20550518.344
 120561595.826 7  93944097.62845  22942106.719                    22942109.766
 107614280.642 8  83855307.22447  20478318.172                    20478322.480
 126217641.665 6  98351452.44543  24018422.250                    24018430.539
 18  5  3  0 17  0.0000000  0 10G29G26G10G32G25G12G14G22G31G03
 124807194.336 7  97252379.11144  23750016.813                    23750023.660
 118037934.392 7  91977650.52145  22461867.875                    22461876.656
 124125083.758 6  96720899.14843  23620229.266                    23620237.051
 108834292.447 8  84805999.24547  20710484.570                    20710491.355
 112683879.680 7  87805654.49746  21443031.102                    21443038.961
 128412446.979 5 100061657.79942  24436079.625                    24436084.336
 107968510.772 7  84131311.89846  20545719.781                    20545724.297
 120523341.108 7  93914288.75045  22934827.164                    22934829.754
 107601359.613 8  83845238.89147  20475858.977                    20475863.305
 126140528.639 6  98291364.42443  24003748.461                    24003755.828
 18  5  3  0 17 30.0000000  0 10G29G26G10G32G25G12G14G22G31G03
 124735033.207 7  97196149.68544  23736285.938                    23736291.465
 117939588.096 7  91901017.05545  22443153.344                    22443161.836
 124236167.618 6  96807457.95844  23641367.031                    23641376.723
 108866479.222 8  84831079.83347  20716609.477                    20716616.523
 112745615.467 7  87853760.29546  21454778.945                    21454786.563
 128521394.594 5 100146551.94942  24456811.070                    24456816.934
 107943652.882 7  84111942.10946  20540989.766                    20540993.930
 120485587.402 7  93884870.27945  22927642.914                    22927645.504
 107588744.226 8  83835408.72147  20473458.352                    20473463.070
 126063811.611 6  98231584.91543  23989149.609                    23989156.770
 18  5  3  0 18  0.0000000  0 10G29G26G10G32G25G12G14G22G31G03
 124663148.705 7  97140135.84944  23722606.133                    23722613.363
 117841532.553 7  91824610.13845  22424493.641                    22424502.379
 124347342.199 6  96894087.42943  23662523.898                    23662532.113
 108899080.712 8  84856483.57947  20722813.438                    20722820.566
 112807843.466 7  87902249.64446  21466620.797                    21466628.234
 128630506.831 5 100231574.41842  24477574.313                    24477579.574
 107919129.198 7  84092832.73546  20536323.086                    20536327.406
 120448334.492 7  93855842.03245  22920554.234                    22920557.035
 107576432.751 8  83825815.36447  20471115.523                    20471120.504
 125987491.911 6  98172115.02443  23974625.914                    23974634.066
 18  5  3  0 18 30.0000000  0 10G29G26G10G32G25G12G14G22G31G03
 124591545.019 7  97084340.80643  23708980.477                    23708986.551
 117743771.012 7  91748432.32145  22405890.406                    22405898.996
 124458605.703 6  96980786.19944  23683696.375                    23683704.891
 108932098.199 8  84882211.47847  20729096.570                    20729103.324
 112870562.119 7  87951121.31346  21478555.688                    21478563.102
 128739782.157 5 100316724.03842  24498368.922                    24498374.496
 107894942.467 7  84073985.93146  20531720.266                    20531724.594
 120411584.642 7  93827205.77145  22913561.008                    22913563.199
 107564425.582 8  83816459.13247  20468830.859                    20468835.219
 125911573.031 6  98112957.46243  23960179.570                    23960187.723
 18  5  3  0 19  0.0000000  0 11G29G26G10G32G25G12G16G14G22G31G03
 124520224.539 7  97028766.44144  23695408.398                    23695414.910
 117646305.413 7  91672485.11245  22387343.430                    22387351.672
 124569954.940 6  97067551.80944  23704885.828                    23704893.645
 108965531.513 8  84908263.39247  20735458.344                    20735465.773
 112933768.678 7  88000373.16946  21490583.664                    21490590.910
 128849217.652 5 100401998.33342  24519193.945                    24519199.344
 131626528.97815                  25047698.695
 107871093.892 7  84055402.61946  20527182.063                    20527186.070
 120375338.537 7  93798962.04145  22906662.891                    22906665.547
 107552721.796 8  83807339.30247  20466603.672                    20466607.938
 125836056.920 6  98054113.76343  23945810.078                    23945817.039
 18  5  3  0 19 30.0000000  0 11G29G26G10G32G25G12G16G14G22G31G03
 124449190.474 7  96973415.26444  23681891.031                    23681897.813
 117549137.786 7  91596770.08345  22368853.094                    22368861.594
 124681386.974 6  97154381.92444  23726090.234                    23726098.418
 108999380.781 8  84934639.43047  20741899.680                    20741906.914
 112997460.502 7  88050003.15046  21502703.672                    21502711.289
 128958810.011 5 100487394.90242  24540047.852                    24540053.734
 131504448.283 5                  25024468.547
 107847584.604 7  84037083.67946  20522708.500                    20522712.648
 120339597.380 7  93771111.79045  22899861.680                    22899864.410
 107541320.738 8  83798455.35947  20464434.172                    20464438.344
 125760945.935 6  97995585.72743  23931515.789                    23931523.527
 18  5  3  0 20  0.0000000  0 11G29G26G10G32G25G12G16G14G22G31G03
 124378445.776 7  96918289.55344  23668429.156                    23668435.184
 117452269.997 7  91521288.70645  22350419.953                    22350428.734
 124792898.708 6  97241274.15644  23747310.539                    23747318.211
 109033645.863 8  84961339.48047  20748420.094                    20748427.023
 113061634.820 7  88100009.10246  21514915.984                    21514923.250
 129068556.18415 100572911.41152  24560932.797                    24560938.121
 131382399.054 5                  25001243.758
 107824416.044 7  84019030.25646  20518299.922                    20518303.816
 120304361.548 7  93743655.28045  22893156.961                    22893159.473
 107530221.321 8  83789806.46347  20462322.016                    20462325.941
 125686242.111 6  97937374.97943  23917300.430                    23917308.113
 18  5  3  0 20 30.0000000  0 11G29G26G10G32G25G12G16G14G22G31G03
 124307994.409 7  96863392.41844  23655022.289                    23655029.277
 117355705.176 7  91446043.40545  22332044.570                    22332052.539
 124904488.149 6  97328226.91843  23768545.953                    23768552.414
 109068327.873 8  84988364.40347  20755020.250                    20755027.207
 113126289.965 7  88150389.72246  21527219.406                    21527226.684
 129178454.31415 100658546.05552  24581845.633                    24581851.711
 131260384.814 6 102280854.27052  24978025.773                    24978030.367
 107801590.375 7  84001244.01146  20513956.055                    20513960.598
 120269633.450 7  93716594.40945  22886548.594                    22886551.266
 107519423.683 8  83781392.71247  20460267.000                    20460271.414
 125611948.622 6  97879483.93643  23903163.102                    23903170.211
 18  5  3  0 21  0.0000000  0 11G29G26G10G32G25G12G16G14G22G31G03
 124237838.429 7  96808725.46844  23641671.945                    23641678.492
 117259444.365 7  91371034.99145  22313726.664                    22313734.992
 125016151.455 6  97415237.22244  23789794.219                    23789802.160
 109103425.841 8  85015713.45047  20761698.977                    20761706.250
 113191422.334 7  88201142.20746  21539613.117                    21539620.309
 129288501.73815 100744297.39052  24602786.672                    24602792.875
 131138406.678 5 102185806.41842  24954814.742                    24954818.891
 107779108.217 7  83983725.44346  20509677.594                    20509682.238
 120235412.866 7  93689929.01745  22880036.438                    22880039.031
 107508926.341 8  83773212.96247  20458269.742                    20458274.184
 125538066.939 6  97821913.78543  23889103.367                    23889111.168
 18  5  3  0 21 30.0000000  0 11G29G26G10G32G25G12G16G14G22G31G03
 124167981.512 7  96754291.53344  23628378.641                    23628385.355
 117163490.160 7  91296265.49345  22295466.891                    22295475.754
 125127886.138 6  97502303.16244  23811056.781                    23811064.598
 109138940.335 8  85043387.06547  20768457.266                    20768464.297
 113257029.759 7  88252264.85846  21552098.180                    21552105.422
 129398694.951 5 100830162.15942  24623755.977                    24623762.180
 131016467.611 5 102090788.97942  24931609.938                    24931615.098
 107756970.998 7  83966475.65346  20505464.992                    20505469.914
 120201701.077 7  93663660.08545  22873621.641                    22873624.344
 107498729.140 8  83765267.09947  20456329.227                    20456333.754
 125464599.650 6  97764666.55843  23875122.828                    23875130.820
 18  5  3  0 22  0.0000000  0 11G29G26G10G32G25G12G16G14G22G31G03
 124098426.478 7  96700092.84244  23615143.406                    23615149.410
 117067844.703 7  91221736.58145  22277265.945                    22277274.508
 125239689.445 6  97589422.58444  23832332.102                    23832339.625
 109174871.505 8  85071385.35947  20775294.719                    20775301.395
 113323109.764 7  88303755.75946  21564672.617                    21564680.148
 129509031.47515 100916138.63752  24644751.531                    24644758.309
 130894570.202 5 101995804.04742  24908413.648                    24908418.859
 107735180.899 7  83949496.35547  20501318.656                    20501322.863
 120168499.255 7  93637788.51445  22867303.125                    22867305.949
 107488831.381 8  83757554.56547  20454445.664                    20454450.066
 125391549.155 6  97707744.12043  23861222.164                    23861229.258
 18  5  3  0 22 30.0000000  0 11G29G26G10G32G25G12G16G14G22G31G03
 124029176.893 7  96646132.15444  23601965.250                    23601971.523
 116972510.454 7  91147450.17145  22259124.063                    22259132.621
 125351558.780 6  97676593.43943  23853619.344                    23853628.070
 109211219.755 8  85099708.65747  20782211.367                    20782218.355
 113389659.942 7  88355613.02946  21577337.172                    21577344.512
 129619508.654 5 101002224.72142  24665774.922                    24665781.676
 130772716.849 5 101900853.43842  24885225.938                    24885231.121
 107713739.604 7  83932788.84247  20497238.961                    20497243.352
 120135808.565 7  93612315.24245  22861081.984                    22861084.707
 107479232.842 8  83750075.18447  20452619.227                    20452623.414
 125318918.022 6  97651148.41543  23847401.086                    23847408.234
 18  5  3  0 23  0.0000000  0 11G29G26G10G32G25G12G16G14G22G31G03
 123960236.044 7  96592412.05344  23588846.609                    23588852.859
 116877489.815 7  91073408.12745  22241042.094                    22241050.617
 125463491.676 6  97763813.81643  23874921.172                    23874927.887
 109247985.473 8  85128357.25647  20789207.664                    20789214.820
 113456678.130 7  88407834.97646  21590090.281                    21590097.348
 129730124.57115 101088418.89252  24686825.320                    24686831.813
 130650910.245 5 101805939.16842  24862044.828                    24862052.281
 107692648.505 7  83916354.22446  20493224.906                    20493229.789
 120103630.298 7  93587241.24545  22854959.242                    22854962.125
 107469932.904 8  83742828.47147  20450849.539                    20450853.906
 125246708.848 6  97594881.55443  23833660.406                    23833667.250
 18  5  3  0 23 30.0000000  0 11G29G26G10G32G25G12G16G14G22G31G03
 123891606.288 7  96538934.31744  23575786.359                    23575792.719
 116782784.085 7  90999611.46945  22223020.609                    22223029.398
 125575484.496 6  97851080.89743  23896232.492                    23896239.828
 109285167.968 8  85157330.61047  20796283.477                    20796290.770
 113524160.891 7  88460418.93846  21602931.547                    21602939.063
 129840875.659 5 101174718.39042  24707900.375                    24707906.539
 130529152.235 5 101711062.87042  24838876.133                    24838882.430
 107671908.424 7  83900193.11547  20489278.641                    20489282.836
 120071964.372 7  93562566.49045  22848932.867                    22848936.383
 107460930.406 8  83735813.54647  20449136.406                    20449140.734
 125174923.058 6  97538944.60744  23819999.000                    23820006.898
 18  5  3  0 24  0.0000000  0 11G29G26G10G32G25G12G16G14G22G31G03
 123823290.294 7  96485701.10944  23562785.758                    23562792.582
 116688395.126 7  90926061.65745  22205058.711                    22205067.246
 125687534.124 6  97938392.27143  23917554.219                    23917561.754
 109322767.026 8  85186628.55947  20803438.492                    20803445.090
 113592105.297 7  88513362.62546  21615860.750                    21615868.551
 129951758.412 5 101261120.53643  24729000.500                    24729007.414
 130407444.793 5 101616225.91442  24815716.625                    24815721.266
 107651520.356 7  83884306.30346  20485398.750                    20485403.238
 120040811.606 7  93538291.62045  22843004.914                    22843007.398
 107452224.445 8  83729029.68047  20447479.938                    20447483.656
 125103562.758 6  97483339.16644  23806420.305                    23806427.766
 18  5  3  0 24 30.0000000  0 11G29G26G10G32G25G12G16G14G22G31G03
 123755292.483 7  96432715.82044  23549846.414                    23549852.961
 116594326.367 7  90852761.34145  22187158.133                    22187166.320
 125799639.068 6  98025746.72243  23938887.008                    23938895.051
 109360784.015 8  85216252.17347  20810672.656                    20810679.848
 113660510.121 7  88566665.06646  21628878.102                    21628885.648
 130062772.101 6 101347624.61942  24750125.336                    24750131.789
 130285791.452 5 101521431.09042  24792566.656                    24792572.078
 107631487.328 7  83868696.14646  20481586.820                    20481590.891
 120010174.297 7  93514418.36745  22837174.875                    22837177.813
 107443815.314 8  83722477.09647  20445879.516                    20445883.867
 125032631.429 6  97428068.02143  23792922.492                    23792930.141
 18  5  3  0 25  0.0000000  0 11G29G26G10G32G25G12G16G14G22G31G03
 123687613.599 7  96379979.04944  23536968.086                    23536974.098
 116500577.309 7  90779710.15045  22169318.367                    22169326.527
 125911793.951 6  98113140.08743  23960229.867                    23960237.559
 109399216.412 8  85246199.47347  20817985.906                    20817993.074
 113729370.120 7  88620322.20146  21641981.625                    21641989.223
 130173911.146 5 101434226.39342  24771275.063                    24771281.520
 130164192.204 5 101426678.42942  24769425.156                    24769432.164
 107611808.085 7  83853361.66446  20477841.313                    20477846.000
 119980050.563 7  93490945.31245  22831442.898                    22831445.414
 107435699.987 8  83716153.46647  20444335.039                    20444339.379
 124962128.812 6  97373130.90544  23779506.688                    23779514.109
 18  5  3  0 25 30.0000000  0 11G29G26G10G32G25G12G16G14G22G31G03
 123620259.982 6  96327495.73144  23524151.242                    23524157.594
 116407153.704 7  90706912.55245  22151540.633                    22151548.820
 126023999.581 6  98200572.99743  23981581.516                    23981589.754
 109438067.951 8  85276473.38347  20825379.234                    20825386.375
 113798686.325 7  88674334.81146  21655172.047                    21655179.586
 130285176.706 5 101520926.80742  24792447.852                    24792453.949
 130042653.230 5 101331972.82942  24746299.320                    24746304.301
 107592487.725 7  83838306.83247  20474165.094                    20474169.309
 119950444.773 7  93467875.86545  22825808.641                    22825811.285
 107427881.669 8  83710061.26247  20442847.242                    20442851.934
 124892060.746 6  97318532.43044  23766171.984                    23766180.195
 18  5  3  0 26  0.0000000  0 11G29G26G10G32G25G12G16G14G22G31G03
 123553231.571 6  96275265.83844  23511395.508                    23511402.121
 116314054.240 7  90634367.53045  22133824.203                    22133832.766
 126136249.838 6  98288040.68643  24002942.445                    24002950.367
 109477335.236 8  85307071.25047  20832851.414                    20832858.887
 113868452.763 7  88728698.26746  21668448.273                    21668455.207
 130396562.570 5 101607720.95042  24813643.813                    24813650.496
 129921173.54715 101237313.25852  24723182.320                    24723187.621
 107573524.401 7  83823530.21146  20470556.563                    20470561.027
 119921354.726 7  93445208.29345  22820273.313                    22820275.969
 107420356.273 8  83704197.31647  20441415.258                    20441419.734
 124822426.158 6  97264271.72444  23752922.070                    23752929.438
 18  5  3  0 26 30.0000000  0 11G29G26G10G32G25G12G16G14G22G31G03
 123486533.024 6  96223292.95944  23498703.797                    23498709.883
 116221282.957 7  90562078.24646  22116170.453                    22116179.133
 126248543.861 6  98375542.50843  24024310.414                    24024318.676
 109517020.318 8  85337994.67047  20840403.703                    20840410.703
 113938668.735 7  88783411.99546  21681810.125                    21681817.355
 130508068.122 5 101694608.35742  24834863.695                    24834869.047
 129799757.41215 101142703.29752  24700075.820                    24700082.648
 107554921.444 7  83809034.39546  20467016.594                    20467021.012
 119892782.947 7  93422944.55345  22814836.250                    22814839.250
 107413125.121 8  83698562.65147  20440039.305                    20440043.242
 124753229.212 6  97210352.03844  23739754.016                    23739761.500
 18  5  3  0 27  0.0000000  0 11G29G26G10G32G25G12G16G14G22G31G03
 123420167.879 6  96171579.89244  23486073.875                    23486080.855
 116128842.309 7  90490046.59346  22098579.867                    22098588.652
 126360879.259 6  98463076.52143  24045688.031                    24045695.813
 109557123.463 8  85369243.85647  20848034.813                    20848041.922
 114009331.904 7  88838474.19246  21695256.273                    21695264.180
 130619691.047 6 101781587.22942  24856105.008                    24856110.746
 129678407.69215 101048145.03652  24676984.109                    24676990.785
 107536680.486 7  83794820.65547  20463545.625                    20463549.961
 119864730.563 7  93401085.53845  22809498.031                    22809500.957
 107406187.764 8  83693156.92047  20438719.266                    20438723.539
 124684472.370 6  97156775.29444  23726669.953                    23726677.281
 18  5  3  0 27 30.0000000  0 11G29G26G10G32G25G12G16G14G22G31G03
 123354136.952 7  96120127.25244  23473508.805                    23473515.586
 116036732.082 7  90418272.40945  22081051.586                    22081060.090
 126473250.953 6  98550638.86643  24067070.609                    24067079.406
 109597642.535 8  85400817.13947  20855745.297                    20855752.539
 114080437.434 7  88893881.08846  21708787.719                    21708795.227
 130731426.782 6 101868653.93442  24877367.313                    24877373.195
 129557124.432 5 100953638.60942  24653904.383                    24653912.223
 107518800.918 7  83780888.52247  20460142.938                    20460147.180
 119837196.148 7  93379630.14045  22804259.148                    22804261.188
 107399541.546 8  83687978.04047  20437454.672                    20437458.852
 124616155.751 6  97103541.58244  23713669.195                    23713677.418
 18  5  3  0 28  0.0000000  0 11G29G26G10G32G25G12G16G14G22G31G03
 123288445.890 7  96068939.45844  23461008.875                    23461014.516
 115944956.981 7  90346759.36146  22063587.406                    22063595.980
 126585658.838 6  98638229.35443  24088461.922                    24088470.102
 109638580.053 8  85432716.48447  20863535.523                    20863542.688
 114151985.274 7  88949632.64246  21722403.094                    21722410.199
 130843274.970 6 101955808.30842  24898651.328                    24898656.859
 129435913.03615 100859188.06552  24630839.086                    24630845.348
 107501286.822 7  83767241.16847  20456810.297                    20456814.879
 119810183.198 7  93358581.07545  22799117.930                    22799121.227
 107393188.261 8  83683027.43347  20436245.328                    20436249.559
 124548284.052 6  97050654.57843  23700753.695                    23700761.715
 18  5  3  0 28 30.0000000  0 11G29G26G10G32G25G12G16G14G22G31G03
 123223099.022 6  96018019.84144  23448573.094                    23448579.652
 115853520.235 7  90275509.95746  22046187.359                    22046196.113
 126698101.268 6  98725846.79443  24109859.172                    24109867.551
 109679937.213 8  85464942.82847  20871405.641                    20871412.762
 114223973.924 7  89005727.68246  21736101.266                    21736109.070
 130955234.276 5 102043049.36542  24919956.086                    24919962.266
 129314776.882 5 100764796.26642  24607788.477                    24607793.707
 107484140.758 7  83753880.59546  20453547.836                    20453551.633
 119783693.556 7  93337939.77945  22794077.109                    22794080.074
 107387128.637 8  83678305.64347  20435092.320                    20435096.645
 124480860.739 6  96998116.92744  23687923.477                    23687931.191
 18  5  3  0 29  0.0000000  0 11G29G26G10G32G25G12G16G14G22G31G03
 123158094.462 6  95967366.97044  23436203.555                    23436209.410
 115762419.036 7  90204522.02746  22028851.297                    22028860.434
 126810570.701 6  98813485.26643  24131261.414                    24131269.348
 109721709.197 8  85497492.40447  20879354.656                    20879361.801
 114296395.954 7  89062160.41546  21749883.055                    21749890.645
 131067297.241 5 102130371.12842  24941280.828                    24941286.762
 129193713.618 5 100670461.28942  24584750.586                    24584756.355
 107467359.361 7  83740804.17546  20450354.125                    20450358.684
 119757722.846 7  93317702.85045  22789135.133                    22789138.109
 107381357.183 8  83673808.40847  20433993.844                    20433998.082
 124413883.123 6  96945926.59244  23675177.445                    23675185.813
 18  5  3  0 29 30.0000000  0 11G29G26G10G32G25G12G16G14G22G31G03
 123093436.546 6  95916984.23344  23423898.938                    23423905.883
 115671656.840 7  90133798.25346  22011579.688                    22011588.746
 126923065.800 6  98901143.71843  24152668.391                    24152677.211
 109763897.303 8  85530366.23847  20887382.477                    20887389.938
 114369250.033 7  89118929.81446  21763746.859                    21763754.289
 131179462.656 5 102217772.65842  24962625.273                    24962631.578
 129072727.096 5 100576186.02242  24561729.203                    24561733.340
 107450945.518 7  83728014.16546  20447230.367                    20447235.016
 119732273.746 7  93297872.38845  22784292.617                    22784295.145
 107375874.627 8  83669536.28747  20432951.031                    20432955.395
 124347354.782 6  96894086.29544  23662518.508                    23662526.699
 18  5  3  0 30  0.0000000  0 11G29G26G10G32G25G12G16G14G22G31G03
 123029129.089 6  95866874.54744  23411661.563                    23411667.949
 115581236.568 7  90063340.90345  21994372.938                    21994381.832
 127035584.685 6  98988820.72243  24174079.727                    24174088.539
 109806502.426 8  85563565.01947  20895490.336                    20895497.410
 114442534.431 7  89176034.52246  21777692.180                    21777699.875
 131291729.010 5 102305252.89442  24983988.367                    24983994.660
 128951820.661 5 100481973.25042  24538720.930                    24538725.680
 107434901.388 7  83715512.23946  20444177.359                    20444181.793
 119707347.558 7  93278449.38045  22779548.953                    22779551.582
 107370681.281 8  83665489.52347  20431962.383                    20431966.867
 124281278.734 6  96842598.49544  23649944.094                    23649952.332
 18  5  3  0 30 30.0000000  0 11G29G26G10G32G25G12G16G14G22G31G03
 122965175.224 7  95817040.42344  23399492.383                    23399498.570
 115491160.279 7  89993151.60646  21977232.359                    21977240.844
 127148124.667 6  99076514.16443  24195495.516                    24195504.180
 109849524.536 8  85597088.72247  20903677.070                    20903684.172
 114516246.489 7  89233472.47446  21791719.125                    21791726.559
 131404093.796 6 102392809.81042  25005371.938                    25005377.504
 128830997.020 5 100387825.00842  24515728.305                    24515733.238
 107419228.438 7  83703299.54446  20441195.359                    20441199.391
 119682944.798 7  93259434.22745  22774905.867                    22774908.398
 107365776.511 8  83661667.61847  20431029.047                    20431033.746
 124215657.194 6  96791464.83444  23637456.883                    23637465.262
 18  5  3  0 31  0.0000000  0 11G29G26G10G32G25G12G16G14G22G31G03
 122901578.309 6  95767484.41644  23387389.242                    23387395.852
 115401430.459 7  89923232.28246  21960157.852                    21960166.219
 127260683.524 6  99164222.30343  24216914.703                    24216923.539
 109892964.009 8  85630937.64947  20911943.383                    20911950.418
 114590383.985 7  89291241.93146  21805827.258                    21805834.695
 131516554.792 5 102480441.64342  25026772.148                    25026778.219
 128710259.006 5 100293743.50242  24492752.273                    24492757.371
 107403928.790 7  83691377.72846  20438283.977                    20438288.168
 119659066.791 7  93240827.99045  22770361.211                    22770364.328
 107361160.106 8  83658070.42347  20430150.750                    20430154.844
 124150492.734 6  96740687.36044  23625057.133                    23625064.941
 18  5  3  0 31 30.0000000  0 10G29G26G10G32G25G16G14G22G31G03
 122838340.698 6  95718208.39544  23375355.758                    23375362.641
 115312048.286 8  89853583.85246  21943148.727                    21943157.164
 127373257.591 6  99251942.27843  24238337.211                    24238346.125
 109936819.925 8  85665111.07747  20920288.773                    20920296.598
 114664943.459 7  89349340.21046  21820015.258                    21820022.699
 128589607.96515 100199729.73752  24469793.008                    24469798.492
 107389002.865 7  83679747.13146  20435443.273                    20435447.895
 119635713.226 7  93222630.39545  22765917.609                    22765920.613
 107356830.684 8  83654696.84747  20429326.859                    20429331.215
 124085786.643 6  96690267.01244  23612743.609                    23612751.695
 18  5  3  0 32  0.0000000  0 10G29G26G10G32G25G16G14G22G31G03
 122775465.809 7  95669215.01544  23363391.398                    23363397.191
 115223016.317 7  89784208.31146  21926206.570                    21926215.008
 127485844.813 6  99339672.54443  24259761.734                    24259770.555
 109981092.789 8  85699609.40047  20928713.594                    20928721.156
 114739922.713 7  89407765.58645  21834283.305                    21834290.730
 128469047.247 5 100105786.46542  24446850.742                    24446856.770
 107374452.589 7  83668409.25246  20432674.391                    20432678.551
 119612885.326 7  93204842.41345  22761573.195                    22761576.656
 107352788.316 8  83651546.95247  20428557.602                    20428561.813
 124021541.619 6  96640205.97944  23600518.438                    23600525.852
 18  5  3  0 32 30.0000000  0 10G29G26G10G32G25G16G14G22G31G03
 122712955.554 7  95620505.77144  23351496.000                    23351502.793
 115134335.585 8  89715106.46946  21909331.148                    21909339.676
 127598441.422 6  99427410.09343  24281187.680                    24281197.633
 110025781.524 8  85734431.77647  20937217.734                    20937225.031
 114815318.173 7  89466515.27746  21848630.453                    21848637.859
 128348578.063 5 100011914.45442  24423927.469                    24423932.168
 107360278.391 7  83657364.40946  20429977.336                    20429981.383
 119590582.546 7  93187463.60945  22757329.586                    22757332.566
 107349030.941 8  83648619.11847  20427842.570                    20427847.109
 123957758.772 6  96590505.08044  23588381.102                    23588388.195
 18  5  3  0 33  0.0000000  0 10G29G26G10G32G25G16G14G22G31G03
 122650812.848 6  95572082.90844  23339670.719                    23339676.922
 115046008.039 8  89646279.82846  21892523.188                    21892531.645
 127711044.873 6  99515152.98043  24302616.367                    24302624.824
 110070885.986 8  85769578.09547  20945800.828                    20945808.344
 114891127.075 7  89525587.13446  21863056.305                    21863063.961
 128228202.887 5  99918115.63242  24401019.992                    24401025.344
 107346481.743 7  83646613.77146  20427352.172                    20427356.590
 119568805.457 7  93170494.43645  22753185.219                    22753188.371
 107345558.612 8  83645913.40747  20427181.703                    20427186.730
 123894440.290 6  96541166.01944  23576331.859                    23576339.668
 18  5  3  0 33 30.0000000  0 10G29G26G10G32G25G16G14G22G31G03
 122589042.506 6  95523950.20944  23327916.508                    23327922.137
 114958037.360 8  89577731.26846  21875782.734                    21875790.852
 127823653.998 6  99602900.27343  24324044.758                    24324053.691
 110116407.719 8  85805049.56047  20954462.898                    20954470.406
 114967348.431 7  89584980.38046  21877561.344                    21877568.949
 128107926.251 5  99824393.70342  24378131.711                    24378137.668
 107333065.486 7  83636159.53946  20424798.852                    20424803.402
 119547556.244 7  93153936.59945  22749141.734                    22749144.758
 107342372.140 8  83643430.44247  20426575.539                    20426579.820
 123831589.741 6  96492191.59244  23564372.289                    23564379.402
 18  5  3  0 34  0.0000000  0 10G29G26G10G32G25G16G14G22G31G03
 122527644.938 6  95476107.98144  23316232.977                    23316238.680
 114870423.138 8  89509460.45846  21859110.281                    21859118.191
 127936263.766 6  99690648.08243  24345473.672                    24345482.898
 110162344.233 8  85840844.23347  20963204.891                    20963211.836
 115043977.177 7  89644691.06846  21892143.063                    21892150.637
 127987747.819 5  99730748.23042  24355262.883                    24355268.891
 107320028.816 7  83626001.08946  20422318.039                    20422322.504
 119526833.330 7  93137788.86545  22745198.414                    22745201.395
 107339468.404 8  83641167.78747  20426022.977                    20426027.379
 123769206.945 6  96443581.64344  23552500.492                    23552508.063
 18  5  3  0 34 30.0000000  0 10G29G26G10G32G25G16G14G22G31G03
 122466625.232 6  95428560.18744  23304620.531                    23304627.168
 114783169.197 8  89441470.40546  21842506.469                    21842514.824
 128048873.335 6  99778395.71943  24366902.289                    24366911.176
 110208697.283 8  85876963.47747  20972025.406                    20972032.852
 115121012.470 7  89704718.55145  21906802.070                    21906809.898
 127867672.141 5  99637182.85542  24332412.859                    24332418.559
 107307375.167 7  83616141.09546  20419910.219                    20419914.328
 119506639.257 7  93122053.21845  22741355.492                    22741358.781
 107336849.036 8  83639126.72747  20425524.508                    20425528.656
 123707295.819 6  96395339.18844  23540719.453                    23540726.996
 18  5  3  0 35  0.0000000  0 10G29G26G10G32G25G16G14G22G31G03
 122405985.646 6  95381308.57344  23293081.320                    23293087.719
 114696277.201 8  89373762.37446  21825971.430                    21825980.141
 128161479.819 6  99866140.97943  24388330.547                    24388340.195
 110255466.356 8  85913406.89347  20980925.289                    20980932.574
 115198451.294 7  89765060.48246  21921538.414                    21921546.035
 127747701.052 5  99543698.90742  24309583.258                    24309588.520
 107295105.640 7  83606580.41946  20417575.438                    20417580.023
 119486974.283 7  93106729.83745  22737613.422                    22737616.785
 107334513.000 8  83637306.43347  20425079.969                    20425084.305
 123645858.049 6  96347465.60444  23529028.398                    23529035.313
 18  5  3  0 35 30.0000000  0 10G29G26G10G32G25G16G14G22G31G03
 122345727.639 6  95334354.30544  23281614.523                    23281620.684
 114609747.505 8  89306336.65146  21809505.570                    21809513.910
 128274078.937 5  99953880.50543  24409757.258                    24409766.602
 110302649.716 8  85950173.12947  20989904.055                    20989911.445
 115276289.396 7  89825713.53445  21936350.266                    21936358.313
 127627835.799 5  99450297.45343  24286773.281                    24286779.398
 107283220.032 7  83597318.90046  20415313.531                    20415317.898
 119467837.066 7  93091817.71145  22733971.344                    22733975.152
 107332457.893 8  83635705.05447  20424689.203                    20424693.160
 123584894.137 6  96299961.26444  23517426.984                    23517434.523
 18  5  3  0 36  0.0000000  0 10G29G26G10G32G25G16G14G22G31G03
 122285855.664 6  95287700.84744  23270221.328                    23270227.570
 114523583.728 8  89239196.05046  21793108.813                    21793117.395
 128386669.683 6 100041613.51143  24431182.898                    24431192.594
 110350248.904 8  85987263.39347  20998961.859                    20998968.910
 115354525.745 7  89886676.90745  21951238.477                    21951245.961
 127508080.541 5  99356981.73742  24263985.141                    24263990.449
 107271721.276 7  83588358.81946  20413125.375                    20413129.797
 119449229.494 7  93077318.28745  22730430.938                    22730434.004
 107330684.964 8  83634323.55247  20424351.664                    20424356.086
 123524407.786 6  96252829.05444  23505916.586                    23505924.352
 18  5  3  0 36 30.0000000  0 10G29G26G10G32G25G16G14G22G31G03
 122226372.008 6  95241349.95044  23258901.750                    23258908.500
 114437786.856 8  89172341.35946  21776781.773                    21776790.949
 128499248.510 5 100129337.19043  24452606.977                    24452615.219
 110398262.775 8  86024676.78647  21008098.711                    21008105.996
 115433156.721 7  89947947.77845  21966200.977                    21966209.137
 127388436.866 6  99263752.94242  24241217.297                    24241223.328
 107260609.810 7  83579700.52346  20411011.070                    20411015.703
 119431150.709 7  93063230.91845  22726990.625                    22726993.883
 107329192.571 8  83633160.64847  20424067.445                    20424071.695
 123464400.006 6  96206069.73244  23494497.977                    23494504.719
 18  5  3  0 37  0.0000000  0 10G29G26G10G32G25G16G14G22G31G03
 122167279.584 6  95195303.92744  23247656.922                    23247663.367
 114352359.262 8  89105774.42046  21760525.750                    21760534.316
 128611813.183 5 100217049.83743  24474026.594                    24474035.602
 110446691.553 8  86062413.48047  21017314.172                    21017321.707
 115512179.988 7  90009524.34145  21981238.930                    21981246.953
 127268907.619 5  99170613.30842  24218471.875                    24218477.199
 107249887.322 7  83571345.33547  20408970.781                    20408975.047
 119413602.545 7  93049557.00645  22723650.820                    22723654.352
 107327980.789 8  83632216.39247  20423837.148                    20423841.074
 123404873.279 6  96159685.27244  23483170.359                    23483177.781
 18  5  3  0 37 30.0000000  0 10G29G26G10G32G25G16G14G22G31G03
 122108580.641 6  95149564.52044  23236487.766                    23236493.355
 114267301.937 8  89039495.99646  21744340.023                    21744348.895
 128724360.166 5 100304748.70743  24495443.758                    24495453.172
 110495534.146 8  86100472.62347  21026608.859                    21026616.277
 115591591.993 7  90071403.81345  21996351.172                    21996358.871
 127149494.521 5  99077564.19343  24195748.195                    24195754.082
 107239554.160 7  83563293.51046  20407004.531                    20407009.023
 119396584.199 7  93036295.94245  22720412.984                    22720415.805
 107327047.893 8  83631489.46047  20423659.594                    20423663.887
 123345828.633 6  96113676.47944  23471934.344                    23471941.676
 18  5  3  0 38  0.0000000  0 10G29G26G10G32G25G16G14G22G31G03
 122050279.083 7  95104134.74444  23225392.516                    23225398.797
 114182617.993 8  88973508.52746  21728225.141                    21728233.438
 128836887.974 5 100392432.67543  24516856.758                    24516866.793
 110544791.522 8  86138854.97647  21035982.359                    21035988.957
 115671391.260 7  90133585.04446  22011536.320                    22011543.531
 127030200.666 6  98984607.95942  24173047.688                    24173053.316
 107229613.399 7  83555547.45346  20405112.258                    20405117.023
 119380097.218 7  93023448.92745  22717275.297                    22717278.160
 107326394.611 8  83630980.40947  20423535.297                    20423539.652
 123287269.251 6  96068045.79144  23460790.914                    23460798.734
 18  5  3  0 38 30.0000000  0 10G29G26G10G32G25G16G14G22G31G03
 121992377.164 6  95059016.38144  23214374.063                    23214380.660
 114098308.059 8  88907812.49446  21712181.461                    21712189.641
 128949392.859 5 100480098.75642  24538266.414                    24538275.102
 110594462.254 8  86177559.42547  21045434.102                    21045441.504
 115751573.760 7  90196064.90445  22026794.234                    22026802.172
 126911027.903 6  98891746.12043  24150369.117                    24150375.051
 107220064.612 7  83548106.83346  20403296.039                    20403300.242
 119364140.521 7  93011015.13545  22714239.070                    22714241.895
 107326019.168 8  83630687.85647  20423463.820                    20423467.926
 123229195.892 6  96022793.80644  23449740.820                    23449747.402
 18  5  3  0 39  0.0000000  0 10G29G26G10G32G25G16G14G22G31G03
 121934878.392 6  95014212.17944  23203432.273                    23203438.934
 114014375.289 8  88842410.36446  21696210.023                    21696217.605
 129061873.379 5 100567745.85442  24559670.758                    24559679.367
 110644547.262 8  86216586.68147  21054964.992                    21054972.156
 115832138.058 7  90258842.26745  22042125.039                    22042132.984
 126791979.813 6  98798981.42143  24127716.039                    24127720.414
 107210910.827 7  83540974.00846  20401554.078                    20401558.266
 119348715.782 7  92998995.84545  22711303.938                    22711306.773
 107325922.169 8  83630612.27047  20423445.117                    20423449.430
 123171611.707 6  95977923.02144  23438782.398                    23438789.070
 18  5  3  0 39 30.0000000  0 10G29G26G10G32G25G16G14G22G31G03
 121877784.085 7  94969723.12544  23192568.008                    23192574.375
 113930820.211 8  88777302.52946  21680309.688                    21680317.793
 129174325.66715 100655370.88852  24581069.523                    24581079.160
 110695045.028 8  86255935.57747  21064574.414                    21064581.703
 115913080.112 7  90321913.97245  22057528.328                    22057536.055
 126673057.614 6  98706314.80042  24105085.039                    24105089.676
 107202151.793 7  83534148.77846  20399886.859                    20399891.000
 119333821.979 7  92987390.27045  22708470.063                    22708472.738
 107326101.732 8  83630752.18847  20423479.281                    20423483.453
 123114517.273 6  95933433.87144  23427917.711                    23427924.801
 18  5  3  0 40  0.0000000  0 10G29G26G10G32G25G16G14G22G31G03
 121821097.450 7  94925551.75344  23181780.563                    23181786.898
 113847644.748 8  88712490.49846  21664481.750                    21664489.441
 129286747.070 5 100742971.91443  24602461.852                    24602471.957
 110745955.315 8  86295605.90947  21074262.328                    21074269.332
 115994397.251 7  90385277.96045  22073002.016                    22073009.883
 126554263.848 6  98613748.23542  24082480.070                    24082484.988
 107193788.874 7  83527632.20846  20398295.203                    20398299.750
 119319459.441 7  92976198.67545  22705736.594                    22705739.301
 107326557.538 8  83631107.35847  20423566.047                    20423570.555
 123057914.559 6  95889327.84544  23417146.047                    23417153.723
 18  5  3  0 40 30.0000000  0 10G29G26G10G32G25G16G14G22G31G03
 121764821.572 7  94881700.45144  23171071.852                    23171077.914
 113764851.330 8  88647976.15646  21648726.703                    21648735.105
 129399135.61115 100830547.35552  24623848.664                    24623858.965
 110797278.433 8  86335597.93047  21084028.789                    21084036.137
 116076087.319 7  90448932.55045  22088547.453                    22088555.035
 126435601.330 6  98521283.98442  24059898.758                    24059904.449
 107185824.198 7  83521425.96446  20396779.852                    20396784.238
 119305629.152 7  92965421.81045  22703104.906                    22703107.727
 107327289.167 8  83631677.46647  20423705.266                    20423709.594
 123001806.047 6  95845606.91744  23406469.570                    23406476.199
 18  5  3  0 41  0.0000000  0 10G29G26G10G32G25G16G14G22G31G03
 121708959.244 7  94838171.39744  23160440.984                    23160447.902
 113682441.492 8  88583760.71646  21633044.516                    21633052.590
 129511488.54215 100918095.02253  24645229.875                    24645238.891
 110849013.765 8  86375911.16047  21093873.797                    21093881.008
 116158147.365 7  90512875.42745  22104162.813                    22104170.594
 126317072.394 6  98428923.80943  24037343.195                    24037348.703
 107178258.609 7  83515530.68647  20395339.953                    20395344.734
 119292331.224 7  92955059.77845  22700574.547                    22700577.109
 107328296.031 8  83632462.03147  20423896.813                    20423901.426
 122946193.327 6  95802272.32444  23395886.094                    23395893.461
 18  5  3  0 41 30.0000000  0 10G29G26G10G32G25G16G14G22G31G03
 121653511.644 7  94794965.49244  23149890.016                    23149896.539
 113600415.443 8  88519844.33146  21617435.531                    21617443.703
 129623802.06415                  24666603.438
 110901159.418 8  86416544.10847  21103796.695                    21103804.320
 116240573.036 7  90577103.20445  22119848.234                    22119855.566
 126198677.937 6  98336668.45843  24014813.586                    24014819.203
 107171091.844 7  83509946.19246  20393976.664                    20393981.031
 119279563.919 7  92945111.23345  22698144.492                    22698147.668
 107329575.902 8  83633459.33847  20424140.383                    20424144.930
 122891076.596 6  95759324.22744  23385397.773                    23385404.902
 18  5  3  0 42  0.0000000  0 10G29G26G10G32G25G16G14G22G31G03
 121598482.041 7  94752085.31944  23139418.469                    23139424.453
 113518775.667 8  88456228.93446  21601899.945                    21601908.574
 129736072.68715 101093095.49252  24687967.133                    24687975.914
 110953715.692 8  86457497.02647  21113797.727                    21113805.742
 116323362.233 7  90641614.24545  22135602.352                    22135609.922
 126080421.296 6  98244520.43842  23992309.547                    23992315.168
 107164325.762 7  83504673.91347  20392688.922                    20392693.426
 119267328.272 7  92935576.94045  22695816.711                    22695819.680
 107331128.894 8  83634669.46147  20424436.086                    20424440.570
 122836458.369 6  95716764.59344  23375004.305                    23375011.516
 18  5  3  0 42 30.0000000  0 10G29G26G10G32G25G16G14G22G31G03
 121543875.871 7  94709535.08144  23129026.375                    23129033.496
 113437526.411 7  88392917.84546  21586438.219                    21586447.297
 129848301.89815 101180546.78653  24709322.289                    24709332.652
 111006684.798 8  86498771.63447  21123877.414                    21123884.590
 116406514.687 7  90706408.35045  22151425.625                    22151433.512
 125962307.02416  98152483.33753  23969833.383                    23969838.699
 107157964.596 7  83499717.15646  20391478.109                    20391483.242
 119255626.838 7  92926458.93445  22693589.531                    22693592.938
 107332956.922 8  83636093.90647  20424783.836                    20424788.047
 122782343.008 6  95674596.77544  23364706.656                    23364714.598
 18  5  3  0 43  0.0000000  0 10G29G26G10G32G25G16G14G22G31G03
 121489692.989 7  94667314.67444  23118716.117                    23118722.883
 113356666.702 8  88329910.29246  21571051.297                    21571059.578
 129960483.864 5 101267961.18343  24730670.523                    24730680.887
 111060063.529 8  86540365.43547  21134035.211                    21134042.695
 116490024.949 7  90771481.26245  22167317.563                    22167325.344
 125844335.112 6  98060557.23843  23947383.938                    23947389.512
 107152006.367 7  83495074.38346  20390344.539                    20390349.063
 119244457.041 7  92917755.18645  22691464.359                    22691467.594
 107335056.557 8  83637729.97847  20425183.336                    20425187.508
 122728729.460 6  95632819.99944  23354504.078                    23354512.152
 18  5  3  0 43 30.0000000  0 10G29G26G10G32G25G16G14G22G31G03
 121435937.467 7  94625427.28944  23108486.719                    23108493.203
 113276199.951 8  88267208.93846  21555739.422                    21555747.996
 130072617.573 5 101355338.04043  24752008.945                    24752018.348
 111113853.173 8  86582279.42147  21144270.969                    21144278.234
 116573891.917 7  90836832.12645  22183276.391                    22183284.438
 125726509.538 6  97968745.14343  23924962.672                    23924967.992
 107146453.959 7  83490747.81946  20389288.000                    20389292.297
 119233820.823 7  92909467.21745  22689440.234                    22689443.531
 107337428.953 8  83639578.59947  20425634.828                    20425638.957
 122675621.179 6  95591436.91144  23344398.328                    23344405.715
 18  5  3  0 44  0.0000000  0 10G29G26G10G32G25G16G14G22G31G03
 121382610.513 7  94583873.83444  23098339.242                    23098345.738
 113196125.939 8  88204813.62446  21540501.664                    21540510.191
 130184698.673 5 101442673.90843  24773337.203                    24773347.125
 111168051.417 8  86624511.80347  21154584.539                    21154592.266
 116658110.806 7  90902457.21245  22199303.016                    22199310.410
 125608831.004 6  97877047.60743  23902568.758                    23902574.484
 107141306.880 7  83486737.10047  20388308.711                    20388313.453
 119223716.204 7  92901593.46245  22687517.430                    22687520.395
 107340071.449 8  83641637.69247  20426137.563                    20426142.020
 122623017.878 7  95550447.35644  23334388.070                    23334395.293
 18  5  3  0 44 30.0000000  0 10G29G26G10G32G25G16G14G22G31G03
 121329715.647 7  94542657.08844  23088273.625                    23088279.859
 113116447.454 8  88142726.50746  21525339.477                    21525347.898
 130296725.413 5 101529967.39342  24794655.234                    24794664.598
 111222658.876 8  86667063.04547  21164976.273                    21164983.602
 116742680.015 7  90968355.27345  22215395.461                    22215403.625
 125491303.002 6  97785467.33643  23880203.867                    23880209.645
 107136567.406 7  83483044.00046  20387406.820                    20387410.996
 119214144.241 7  92894134.78945  22685696.156                    22685698.828
 107342984.811 8  83643907.84647  20426692.250                    20426696.660
 122570922.493 6  95509853.54044  23324474.023                    23324482.293
 18  5  3  0 45  0.0000000  0 10G29G26G10G32G25G16G14G22G31G03
 121277256.127 7  94501779.55044  23078290.711                    23078297.211
 113037166.678 8  88080949.29746  21510252.664                    21510261.238
 130408695.818 6 101617217.00242  24815963.156                    24815971.820
 111277675.589 8  86709933.19647  21175445.586                    21175452.730
 116827597.195 7  91034524.48645  22231555.117                    22231563.105
 125373928.218 6  97694006.50943  23857868.602                    23857873.992
 107132237.053 7  83479669.68946  20386582.469                    20386587.012
 119205105.655 7  92887091.72845  22683975.719                    22683978.910
 107346168.601 8  83646388.71647  20427297.672                    20427301.992
 122519337.002 7  95469657.07844  23314658.375                    23314665.844
 18  5  3  0 45 30.0000000  0 10G29G26G10G32G25G16G14G22G31G03
 121225234.448 7  94461243.20544  23068391.477                    23068397.629
 112958285.613 8  88019483.54046  21495242.195                    21495250.602
 130520607.665 6 101704420.95243  24837259.563                    24837268.254
 111333101.460 8  86753122.16747  21185992.633                    21185999.984
 116912859.931 7  91100962.96045  22247779.953                    22247787.602
 125256709.520 6  97602667.26843  23835562.656                    23835568.113
 107128317.491 7  83476615.48046  20385837.063                    20385841.195
 119196600.597 7  92880464.39845  22682357.375                    22682360.566
 107349622.640 8  83649080.16747  20427955.305                    20427959.461
 122468263.588 6  95429859.62944  23304939.148                    23304946.672
 18  5  3  0 46  0.0000000  0 10G29G26G10G32G25G16G14G22G31G03
 121173652.145 7  94421049.21644  23058576.016                    23058581.465
 112879804.435 8  87958329.39346  21480307.781                    21480316.703
 130632456.934 5 101791576.19342  24858542.656                    24858552.813
 111388934.489 8  86796628.40347  21196617.195                    21196624.789
 116998463.927 7  91167667.35245  22264070.109                    22264077.750
 125139647.749 6  97511450.30943  23813285.945                    23813291.523
 107124808.656 7  83473881.31747  20385168.875                    20385173.648
 119188627.666 7  92874251.71745  22680840.492                    22680843.363
 107353344.772 9  83651980.52947  20428663.578                    20428668.020
 122417702.348 7  95390461.26944  23295317.672                    23295325.285
 18  5  3  0 46 30.0000000  0 10G29G26G10G32G25G16G14G22G31G03
 121122511.646 7  94381199.49144  23048843.586                    23048850.703
 112801724.750 8  87897488.09146  21465449.758                    21465458.219
 130744240.705 5 101878680.26942  24879815.305                    24879824.262
 111445174.175 8  86840451.51547  21207319.336                    21207326.617
 117084406.414 7  91234635.49645  22280424.508                    22280431.660
 125022745.479 6  97420357.60543  23791041.305                    23791045.465
 107121711.195 7  83471467.70146  20384579.875                    20384584.152
 119181186.786 7  92868453.62445  22679424.102                    22679427.434
 107357334.409 8  83655089.33247  20429423.063                    20429426.746
 122367654.823 7  95351463.20244  23285793.578                    23285801.766
 18  5  3  0 47  0.0000000  0 10G29G26G10G32G25G16G14G22G31G03
 121071815.693 7  94341696.16744  23039196.969                    23039203.078
 112724048.205 8  87836960.92846  21450668.500                    21450676.992
 130855956.970 5 101965731.92842  24901073.930                    24901083.227
 111501819.980 8  86884591.08747  21218098.656                    21218106.098
 117170684.545 7  91301865.19145  22296842.422                    22296850.637
 124906004.967 6  97329390.98743  23768825.617                    23768830.793
 107119026.483 7  83469375.71047  20384068.727                    20384073.398
 119174277.381 7  92863069.65545  22678108.883                    22678112.598
 107361591.105 8  83658406.23247  20430232.719                    20430236.836
 122318122.716 7  95312866.74444  23276367.875                    23276375.746
 18  5  3  0 47 30.0000000  0 10G29G26G10G32G25G16G14G22G31G03
 121021568.751 7  94302542.72244  23029635.164                    23029641.516
 112646778.136 8  87776750.50046  21435964.344                    21435972.824
 130967604.348 5 102052729.80342  24922320.125                    24922329.230
 111558873.130 8  86929048.07347  21228955.922                    21228963.109
 117257297.286 7  91369355.61145  22313324.125                    22313331.984
 124789430.160 6  97238553.49443  23746641.711                    23746647.527
 107116757.298 7  83467607.50346  20383636.938                    20383641.539
 119167902.063 7  92858101.87145  22676896.414                    22676899.328
 107366115.695 8  83661931.88847  20431093.766                    20431097.609
 122269109.239 6  95274674.43144  23267041.695                    23267049.250
 18  5  3  0 48  0.0000000  0 10G29G26G10G32G25G16G14G22G31G03
 120971771.843 7  94263739.95144  23020159.156                    23020165.297
 112569915.105 8  87716857.23046  21421337.453                    21421345.957
 131079179.526 5 102139671.43842  24943551.984                    24943561.203
 111616331.999 8  86973821.20347  21239889.914                    21239897.184
 117344240.741 7  91437103.73245  22329868.883                    22329876.918
 124673022.801 6  97147846.46043  23724490.977                    23724495.957
 107114904.085 7  83466163.43647  20383284.383                    20383288.758
 119162059.072 7  92853548.89045  22675784.375                    22675787.105
 107370906.671 8  83665665.12047  20432005.555                    20432009.438
 122220614.948 7  95236886.67844  23257813.461                    23257821.367
 18  5  3  0 48 30.0000000  0 10G29G26G10G32G25G16G14G22G31G03
 120922427.727 7  94225290.02444  23010769.375                    23010775.527
 112493460.799 8  87657282.45846  21406789.266                    21406797.336
 131190679.967 5 102226554.80042  24964769.758                    24964778.590
 111674196.224 8  87018910.19347  21250901.219                    21250908.531
 117431512.313 7  91505107.53145  22346476.008                    22346484.008
 124556785.374 6  97057271.82443  23702371.258                    23702376.840
 107113467.695 7  83465044.16146  20383011.180                    20383015.367
 119156748.580 7  92849410.82145  22674774.031                    22674776.535
 107375963.499 8  83669605.50647  20432967.648                    20432972.203
 122172641.559 7  95199504.80644  23248683.430                    23248692.230
 18  5  3  0 49  0.0000000  0 10G29G26G10G32G25G16G14G22G31G03
 120873538.577 7  94187194.59444  23001466.531                    23001472.305
 112417416.475 8  87598027.14346  21392318.258                    21392326.516
 131302102.890 5 102313377.82142  24985973.711                    24985982.902
 111732464.842 8  87064314.29547  21261989.438                    21261996.629
 117519108.891 7  91573364.57945  22363145.063                    22363152.867
 124440719.752 6  96966831.08643  23680285.453                    23680290.480
 107112449.137 7  83464250.47446  20382817.555                    20382821.539
 119151969.933 7  92845687.18645  22673864.867                    22673867.543
 107381285.238 8  83673752.31747  20433980.352                    20433984.504
 122125190.241 7  95162529.74644  23239654.258                    23239661.781
 18  5  3  0 49 30.0000000  0 10G29G26G10G32G25G16G14G22G31G03
 120825106.095 7  94149455.01744  22992249.273                    22992255.691
 112341782.907 8  87539091.91146  21377926.148                    21377934.414
 131413444.905 5 102400137.72542  25007160.680                    25007170.254
 111791136.504 8  87110032.45947  21273154.023                    21273161.527
 117607026.793 7  91641872.01145  22379875.711                    22379883.418
 124324827.694 6  96876525.58543  23658230.852                    23658236.078
 107111848.521 7  83463782.45146  20382702.477                    20382707.211
 119147722.070 7  92842377.15345  22673056.336                    22673058.824
 107386870.547 8  83678104.50147  20435043.203                    20435047.203
 122078261.642 7  95125962.01144  23230724.070                    23230732.203
 18  5  3  0 50  0.0000000  0 10G29G26G10G32G25G16G14G22G31G03
 120777133.601 7  94112073.87344  22983120.688                    22983126.762
 112266562.517 8  87480478.62546  21363611.820                    21363620.145
 131524704.389 5 102486833.37243  25028333.508                    25028342.688
 111850211.524 8  87156064.92547  21284395.742                    21284402.918
 117695264.193 7  91710628.40145  22396666.547                    22396674.805
 124209112.472 6  96786357.89043  23636211.258                    23636216.297
 107111667.734 7  83463641.56846  20382668.625                    20382672.691
 119144005.830 7  92839481.37545  22672349.445                    22672351.926
 107392719.881 8  83682662.43247  20436156.406                    20436160.688
 122031858.218 7  95089803.48244  23221893.867                    23221901.570
 18  5  3  0 50 30.0000000  0 10G29G26G10G32G25G16G14G22G31G03
 120729624.695 7  94075053.96244  22974080.320                    22974086.055
 112191757.752 8  87422189.19646  21349376.641                    21349385.113
 131635879.625 6 102573463.28342  25049488.477                    25049498.508
 111909690.119 8  87202411.86647  21295714.570                    21295721.492
 117783819.139 7  91779632.22145  22413518.148                    22413526.551
 124093577.163 6  96696330.41043  23614225.953                    23614231.105
 107111908.987 7  83463829.54846  20382714.563                    20382719.020
 119140822.031 7  92837000.48345  22671742.750                    22671745.902
 107398833.331 8  83687426.15747  20437319.688                    20437324.055
 121985982.291 7  95054056.01944  23213164.141                    23213171.625
 18  5  3  0 51  0.0000000  0 10G29G26G10G32G25G16G14G22G31G03
 120682579.517 7  94038395.40644  22965127.313                    22965133.762
 112117368.091 8  87364223.23846  21335220.852                    21335229.527
 131746966.113 6 102660024.10842  25070628.313                    25070637.238
 111969569.733 8  87249071.29547  21307108.781                    21307115.965
 117872686.911 7  91848879.80445  22430428.922                    22430437.273
 123978222.307 6  96606443.52243  23592274.266                    23592279.691
 107112571.339 7  83464345.65446  20382840.508                    20382844.738
 119138168.265 7  92834932.60045  22671238.172                    22671240.906
 107405208.222 8  83692393.60747  20438532.719                    20438537.160
 121940633.320 7  95018719.15144  23204534.094                    23204542.242
 18  5  3  0 51 30.0000000  0  9G29G26G32G25G16G14G22G31G03
 120636001.496 7  94002100.85744  22956263.531                    22956270.074
 112043395.860 8  87306582.53646  21321144.352                    21321152.590
 112029850.508 8  87296043.31347  21318579.805                    21318587.125
 117961865.435 7  91918369.53445  22447399.539                    22447407.324
 123863051.684 6  96516700.23043  23570358.305                    23570363.066
 107113656.716 7  83465191.39646  20383047.070                    20383051.258
 119136045.022 7  92833278.11745  22670833.977                    22670837.215
 107411844.640 8  83697564.83847  20439796.094                    20439800.035
 121895813.495 7  94983794.61344  23196005.195                    23196013.055
 18  5  3  0 52  0.0000000  0  9G29G26G32G25G16G14G22G31G03
 120589894.130 7  93966173.07244  22947490.055                    22947495.730
 111969843.600 8  87249269.09446  21307148.063                    21307156.461
 112090532.880 8  87343328.25647  21330127.266                    21330134.363
 118051353.059 7  91988100.11845  22464428.539                    22464435.980
 123748067.643 6  96427102.33643  23548477.289                    23548482.496
 107115166.865 7  83466368.12546  20383334.258                    20383339.094
 119134452.953 7  92832037.52845  22670531.172                    22670534.352
 107418743.160 8  83702940.31247  20441108.570                    20441112.363
 121851525.339 7  94949284.35645  23187577.445                    23187585.570
 18  5  3  0 52 30.0000000  0  9G29G26G32G25G16G14G22G31G03
 120544258.607 7  93930612.92744  22938805.828                    22938812.078
 111896712.005 8  87192283.44246  21293231.539                    21293239.699
 112151615.342 8  87390924.96947  21341750.797                    21341758.023
 118141146.175 7  92058068.75245  22481514.773                    22481522.992
 123633272.069 6  96337651.30443  23526631.695                    23526637.770
 107117102.386 7  83467876.31646  20383702.242                    20383707.184
 119133391.133 7  92831210.12345  22670329.242                    22670331.895
 107425902.550 8  83708519.05547  20442470.602                    20442475.148
 121807769.388 7  94915188.80844  23179251.906                    23179259.234
 18  5  3  0 53  0.0000000  0  9G29G26G32G25G16G14G22G31G03
 120499099.108 7  93895423.73744  22930211.617                    22930218.211
 111824004.029 8  87135627.87846  21279395.461                    21279404.273
 112213098.745 8  87438834.09047  21353451.188                    21353458.418
 118231243.450 7  92128274.38245  22498660.281                    22498668.313
 123518669.078 6  96248350.30343  23504824.586                    23504828.992
 107119465.816 7  83469717.93046  20384152.430                    20384156.715
 119132860.591 7  92830796.70245  22670228.172                    22670230.961
 107433323.753 8  83714301.81147  20443882.727                    20443887.277
 121764548.549 7  94881510.23444  23171026.266                    23171034.320
 18  5  3  0 53 30.0000000  0  9G29G26G32G25G16G14G22G31G03
 120454415.358 7  93860605.22944  22921708.977                    22921715.223
 111751718.285 8  87079301.33546  21265639.977                    21265648.156
 112274979.567 8  87487052.90347  21365226.469                    21365233.984
 118321639.334 7  92198712.69945  22515862.055                    22515870.020
 123404258.114 6  96159198.93943  23483052.352                    23483057.875
 107122255.322 7  83471891.57046  20384683.516                    20384687.656
 119132857.986 7  92830794.67845  22670228.133                    22670230.246
 107441003.046 8  83720285.67247  20445344.539                    20445348.586
 121721861.331 7  94848247.44244  23162903.273                    23162911.324
 18  5  3  0 54  0.0000000  0  9G29G26G32G25G16G14G22G31G03
 120410211.233 7  93826160.48644  22913297.367                    22913304.094
 111679858.200 8  87023306.46646  21251965.531                    21251973.652
 112337259.099 8  87535582.38947  21377077.789                    21377085.086
 118412333.044 7  92269383.09745  22533120.750                    22533128.543
 123290043.474 6  96070200.57543  23461319.422                    23461323.605
 107125473.214 7  83474399.00846  20385295.641                    20385300.254
 119133385.147 7  92831205.42845  22670327.641                    22670330.633
 107448942.058 8  83726471.91047  20446855.336                    20446859.617
 121679711.013 7  94815403.06444  23154882.961                    23154890.254
 18  5  3  0 54 30.0000000  0  9G29G26G32G25G16G14G22G31G03
 120366487.711 7  93792090.23344  22904977.391                    22904982.922
 111608423.567 8  86967643.12446  21238371.813                    21238379.828
 112399935.017 8  87584420.74747  21389004.594                    21389011.965
 118503320.153 7  92340282.11045  22550434.789                    22550442.520
 123176026.041 6  95981355.83643  23439621.844                    23439627.555
 107129119.552 7  83477240.30246  20385989.500                    20385993.984
 119134440.235 7  92832027.56945  22670528.898                    22670531.980
 107457138.539 8  83732858.77347  20448414.570                    20448419.176
 121638097.329 7  94782976.80644  23146964.078                    23146971.145
 18  5  3  0 55  0.0000000  0  9G29G26G32G25G16G14G22G31G03
 120323248.216 7  93758397.13344  22896748.641                    22896755.160
 111537417.270 8  86912313.55246  21224859.508                    21224868.027
 112463007.992 8  87633568.50447  21401006.906                    21401014.707
 118594599.319 7  92411408.69345  22567804.961                    22567812.355
 123062209.624 6  95892667.76743  23417963.023                    23417968.797
 107133196.737 7  83480417.31846  20386765.563                    20386769.793
 119136024.000 7  92833261.67245  22670830.141                    22670833.047
 107465593.371 8  83739446.95647  20450023.383                    20450027.840
 121597022.958 7  94750970.80244  23139148.453                    23139155.113
 18  5  3  0 55 30.0000000  0  9G29G26G32G25G16G14G22G31G03
 120280495.278 7  93725083.16444  22888613.492                    22888619.188
 111466840.779 8  86857318.89446  21211429.586                    21211437.684
 112526477.430 8  87683025.18947  21413084.852                    21413092.195
 118686167.867 7  92482760.77345  22585229.680                    22585237.781
 122948596.548 6  95804138.13743  23396342.828                    23396348.605
 107137705.670 7  83483930.76746  20387623.344                    20387627.813
 119138136.133 7  92834907.47745  22671232.156                    22671235.375
 107474305.840 8  83746235.89047  20451681.703                    20451685.770
 121556489.304 7  94719386.13144  23131434.500                    23131442.117
 18  5  3  0 56  0.0000000  0  9G29G26G32G25G16G14G22G31G03
 120238229.820 7  93692149.05644  22880570.742                    22880576.422
 111396693.724 8  86802658.86946  21198081.297                    21198089.391
 112590340.848 8  87732788.87746  21425237.797                    21425245.262
 118778021.355 6  92554334.88745  22602708.797                    22602716.855
 122835187.439 6  95715767.44043  23374761.328                    23374767.746
 107142645.779 7  83487780.19146  20388563.422                    20388567.859
 119140774.460 7  92836963.32145  22671734.406                    22671737.691
 107483273.776 8  83753223.88647  20453388.109                    20453392.566
 121516495.858 7  94688222.41044  23123823.797                    23123831.336
 18  5  3  0 56 30.0000000  0  9G29G26G32G25G16G14G22G31G03
 120196455.303 7  93659597.51945  22872621.125                    22872626.980
 111326979.137 8  86748335.82046  21184814.563                    21184822.902
 112654599.121 8  87782860.23947  21437465.281                    21437472.973
 118870158.607 6  92626130.11445  22620242.195                    22620249.352
 122721986.319 6  95627558.81443  23353220.047                    23353226.625
 107148019.617 7  83491967.59546  20389585.898                    20389590.594
 119143940.150 7  92839430.07445  22672336.906                    22672339.613
 107492498.216 8  83760411.76047  20455143.852                    20455148.039
 121477045.455 7  94657481.83844  23116316.750                    23116323.910
 18  5  3  0 57  0.0000000  0  9G29G26G32G25G16G14G22G31G03
 120155173.669 7  93627430.03044  22864765.859                    22864771.250
 111257698.156 8  86694350.65146  21171631.180                    21171639.102
 112719251.304 8  87833238.53846  21449768.273                    21449775.738
 118962576.680 7  92698144.16145  22637828.680                    22637836.672
 122608995.511 6  95539514.03443  23331719.000                    23331724.457
 107153827.934 7  83496493.54246  20390691.539                    20390695.684
 119147632.366 7  92842307.11745  22673039.828                    22673042.391
 107501978.602 8  83767799.06747  20456947.680                    20456951.953
 121438139.196 7  94627165.27344  23108913.125                    23108920.496
 18  5  3  0 57 30.0000000  0  9G29G26G32G25G16G14G22G31G03
 120114386.141 7  93595647.55244  22857003.945                    22857009.398
 111188850.979 8  86640703.51446  21158529.781                    21158538.430
 112784295.415 8  87883922.24246  21462146.172                    21462153.605
 119055271.659 6  92770373.98845  22655467.805                    22655475.777
 122496216.017 6  95451633.96243  23310258.102                    23310263.219
 107160070.055 7  83501357.52946  20391879.141                    20391883.730
 119151849.545 7  92845593.22545  22673842.594                    22673845.023
 107511713.011 8  83775384.32047  20458800.031                    20458804.570
 121399777.093 7  94597272.71944  23101613.008                    23101620.328
 18  5  3  0 58  0.0000000  0  9G29G26G32G25G16G14G22G31G03
 120074096.480 7  93564253.03344  22849336.969                    22849342.988
 111120440.248 8  86587396.46946  21145511.563                    21145520.313
 112849731.999 8  87934911.76346  21474598.422                    21474605.707
 119148242.134 6  92842818.48045  22673159.461                    22673167.469
 122383651.430 6  95363921.32243  23288837.352                    23288842.715
 107166748.688 7  83506561.64346  20393150.109                    20393154.859
 119156592.288 7  92849288.88145  22674743.984                    22674747.117
 107521702.420 8  83783168.27347  20460700.898                    20460705.391
 121361961.530 7  94567806.03844  23094417.234                    23094424.840
 18  5  3  0 58 30.0000000  0  9G29G26G32G25G16G14G22G31G03
 120034305.841 7  93533247.35744  22841765.039                    22841770.711
 111052466.598 8  86534430.00146  21132576.539                    21132584.734
 112915559.589 8  87986205.96546  21487124.938                    21487132.227
 119241484.700 6  92915474.98745  22690903.211                    22690911.160
 122271303.637 6  95276377.61443  23267458.563                    23267463.543
 107173863.945 7  83512105.99246  20394504.094                    20394508.414
 119161859.459 7  92853393.14045  22675746.492                    22675749.570
 107531945.365 8  83791149.79047  20462650.250                    20462654.469
 121324693.070 7  94538765.66344  23087324.984                    23087332.527
 18  5  3  0 59  0.0000000  0  9G29G26G32G25G16G14G22G31G03
 119995016.541 7  93502632.33544  22834288.203                    22834294.590
 110984931.305 8  86481805.10646  21119725.234                    21119733.078
 112981777.320 8  88037804.17946  21499725.703                    21499733.180
 119334996.561 6  92988341.33645  22708697.773                    22708705.754
 122159175.089 6  95189004.73843  23246120.820                    23246125.594
 107181416.884 7  83517991.39246  20395941.258                    20395945.660
 119167650.397 7  92857905.54345  22676848.836                    22676851.879
 107542441.244 8  83799328.39047  20464647.359                    20464651.898
 121287972.811 7  94510152.48944  23080337.180                    23080344.418
 18  5  3  0 59 30.0000000  0  9G29G26G32G25G16G14G22G31G03
 119956231.797 7  93472410.48044  22826908.148                    22826913.852
 110917836.834 8  86429523.70647  21106957.875                    21106965.703
 113048385.559 8  88089706.68346  21512400.672                    21512408.246
 119428776.168 6  93061416.31445  22726543.648                    22726551.707
 122047268.738 6  95101805.03243  23224825.227                    23224830.582
 107189409.077 7  83524219.05846  20397462.234                    20397466.492
 119173965.760 7  92862826.60445  22678050.102                    22678053.527
 107553190.830 8  83807704.68547  20466692.805                    20466697.332
 121251802.971 7  94481968.20845  23073454.695                    23073462.320
 18  5  3  1  0  0.0000000  0  9G29G26G32G25G16G14G22G31G03
 119917951.871 7  93442581.99044  22819623.531                    22819629.703
 110851182.750 8  86377585.47546  21094273.547                    21094282.020
 113115381.781 8  88141911.51446  21525149.961                    21525157.211
 119522819.059 6  93134696.45644  22744439.695                    22744447.449
 121935585.458 6  95014779.12743  23203573.445                    23203578.496
 107197840.168 7  83530788.72946  20399066.883                    20399071.402
 119180803.184 7  92868154.44545  22679351.352                    22679354.922
 107564191.759 8  83816276.83547  20468786.602                    20468791.086
 121216183.045 7  94454212.42144  23066676.289                    23066683.727
 18  5  3  1  0 30.0000000  0  9G29G26G32G25G16G14G22G31G03
 119880180.243 7  93413149.56244  22812435.500                    22812441.391
 110784971.295 8  86325992.14247  21081673.797                    21081682.645
 113182766.087 8  88194418.74146  21537972.773                    21537980.215
 119617123.589 6  93208180.46545  22762385.242                    22762393.316
 121824128.698 6  94927929.71543  23182363.398                    23182368.957
 107206711.815 7  83537701.68947  20400754.727                    20400759.344
 119188162.855 7  92873889.24445  22680752.125                    22680755.188
 107575444.572 8  83825045.25947  20470927.602                    20470931.680
 121181114.972 7  94426886.63144  23060003.117                    23060010.484
 18  5  3  1  1  0.0000000  0  9G29G26G32G25G16G14G22G31G03
 119842918.319 7  93384114.31844  22805345.297                    22805350.891
 110719203.313 8  86274744.38246  21069158.813                    21069167.469
 113250537.182 8  88247227.37246  21550869.305                    21550876.730
 119711686.505 7  93281865.81244  22780379.734                    22780387.453
 121712900.115 6  94841258.14343  23161197.156                    23161202.234
 107216024.588 7  83544958.38746  20402526.750                    20402531.480
 119196043.770 7  92880030.19845  22682251.906                    22682254.809
 107586948.211 8  83834009.13147  20473116.789                    20473120.945
 121146599.404 7  94399991.38644  23053434.477                    23053442.246
 18  5  3  1  1 30.0000000  0  9G29G26G32G25G16G14G22G31G03
 119806167.931 7  93355477.66544  22798351.367                    22798357.832
 110653879.750 8  86223842.91447  21056728.141                    21056736.566
 113318693.932 8  88300336.50546  21563839.156                    21563846.176
 119806504.847 6  93355750.20845  22798423.000                    22798430.938
 121601901.930 6  94754766.08743  23140074.969                    23140080.289
 107225778.924 7  83552559.15146  20404383.133                    20404387.703
 119204444.674 7  92886576.35645  22683850.938                    22683853.199
 107598701.783 8  83843167.75347  20475353.258                    20475357.770
 121112637.115 7  94373527.26445  23046972.086                    23046979.285
 18  5  3  1  2  0.0000000  0  9G29G26G32G25G16G14G22G31G03
 119769932.307 7  93327242.13844  22791456.039                    22791462.422
 110589002.802 8  86173289.45546  21044382.563                    21044390.262
 113387236.465 8  88353746.26046  21576882.289                    21576889.809
 119901576.954 6  93429832.32344  22816514.625                    22816522.840
 121491137.646 6  94668456.28643  23118996.578                    23119002.223
 107235976.569 7  83560505.35146  20406323.875                    20406328.063
 119213366.185 7  92893528.16345  22685548.180                    22685551.477
 107610705.970 8  83852521.66747  20477637.945                    20477642.258
 121079230.071 7  94347495.80244  23040614.844                    23040622.273
 18  5  3  1  2 30.0000000  0  9G29G26G32G25G16G14G22G31G03
 119734212.105 7  93299408.23144  22784659.000                    22784665.277
 110524572.659 8  86123084.15647  21032121.953                    21032129.992
 113456162.872 8  88407455.12746  21589998.219                    21590005.984
 119996899.135 6  93504109.30644  22834654.445                    22834661.805
 121380608.633 6  94582329.81344  23097964.188                    23097969.199
 107246617.396 7  83568796.89646  20408348.484                    20408353.305
 119222806.488 7  92900884.23045  22687344.258                    22687347.910
 107622959.325 8  83862069.73247  20479969.680                    20479974.242
 121046378.252 7  94321896.99245  23034363.281                    23034371.582
 18  5  3  1  3  0.0000000  0  9G29G26G32G25G16G14G22G31G03
 119699008.326 7  93271976.73544  22777959.641                    22777965.770
 110460589.401 8  86073227.08046  21019946.203                    21019954.676
 113525471.074 8  88461461.49946  21603187.563                    21603194.738
 120092467.479 6  93578578.10644  22852839.945                    22852847.785
 121270315.825 6  94496387.39643  23076975.766                    23076981.125
 107257701.361 7  83577433.73346  20410458.195                    20410462.656
 119232763.951 7  92908643.27245  22689239.852                    22689242.723
 107635460.024 8  83871810.53847  20482348.289                    20482352.633
 121014081.518 7  94296730.70944  23028217.141                    23028224.793
 18  5  3  1  3 30.0000000  0  9G29G26G32G25G16G14G22G31G03
 119664325.819 7  93244951.41944  22771360.242                    22771365.957
 110397057.044 8  86023721.35647  21007856.414                    21007864.828
 113595162.998 8  88515766.88546  21616449.188                    21616456.781
 120188282.181 7  93653238.86344  22871073.398                    22871080.836
 121160264.173 6  94410632.88544  23056034.492                    23056039.469
 107269231.762 7  83586418.44546  20412651.828                    20412656.305
 119243240.271 7  92916806.62645  22691232.703                    22691235.313
 107648210.308 8  83881745.81747  20484774.867                    20484778.941
 120982343.588 7  94271999.84344  23022177.453                    23022185.809
 18  5  3  1  4  0.0000000  0  9G29G26G32G25G16G14G22G31G03
 119630163.978 7  93218331.81544  22764859.289                    22764865.219
 110333974.178 8  85974565.88546  20995852.078                    20995860.547
 113665235.209 8  88570368.58946  21629783.516                    21629790.969
 120284337.991 7  93728087.52244  22889351.852                    22889359.582
 121050453.629 6  94325066.25543  23035136.469                    23035142.801
 107281206.841 7  83595749.66846  20414930.773                    20414935.438
 119254232.171 7  92925371.72345  22693324.789                    22693327.668
 107661206.995 8  83891873.10047  20487247.914                    20487252.145
 120951162.873 7  94247703.17944  23016244.320                    23016252.496
 18  5  3  1  4 30.0000000  0  9G29G26G32G25G16G14G22G31G03
 119596526.219 7  93192120.59644  22758457.617                    22758463.613
 110271343.379 8  85925762.66447  20983933.828                    20983942.594
 113735688.116 8  88625266.95046  21643190.266                    21643197.758
 120380633.661 6  93803123.06444  22907676.328                    22907684.422
 120940887.807 6  94239690.31544  23014287.914                    23014293.000
 107293628.934 7  83605429.20746  20417294.883                    20417299.270
 119265740.176 7  92934338.99245  22695514.516                    22695517.879
 107674451.348 8  83902193.37447  20489768.039                    20489772.465
 120920541.661 7  94223842.49145  23010417.813                    23010425.504
 18  5  3  1  5  0.0000000  0  9G29G26G32G25G16G14G22G31G03
 119563414.293 7  93166319.10744  22752157.313                    22752162.879
 110209165.454 8  85877312.34047  20972101.734                    20972110.176
 113806520.544 8  88680461.03246  21656669.164                    21656676.801
 120477166.207 6  93878343.19644  22926045.805                    22926053.742
 120831569.087 6  94154506.92843  22993485.539                    22993490.246
 107306498.446 7  83615457.38746  20419743.383                    20419748.270
 119277763.069 7  92943707.46045  22697802.492                    22697805.984
 107687942.419 8  83912705.88947  20492335.398                    20492339.746
 120890480.535 7  94200418.23945  23004696.992                    23004704.906
 18  5  3  1  5 30.0000000  0  9G29G26G32G25G16G14G22G31G03
 119530830.137 7  93140928.86644  22745957.297                    22745962.898
 110147441.804 8  85829215.99947  20960356.289                    20960364.797
 113877731.736 7  88735950.25846  21670220.414                    21670227.871
 120573933.223 6  93953746.03744  22944460.031                    22944467.957
 120722499.713 6  94069517.82944  22972729.859                    22972735.230
 107319816.268 7  83625834.90346  20422278.164                    20422282.621
 119290300.427 7  92953476.82445  22700188.234                    22700191.594
 107701679.766 8  83923410.31347  20494949.852                    20494954.184
 120860980.593 7  94177431.27745  22999083.453                    22999091.484
 18  5  3  1  6  0.0000000  0 10G29G26G32G25G16G14G22G31G03G23
 119498775.467 7  93115951.21644  22739856.641                    22739862.551
 110086173.053 8  85781474.12047  20948696.953                    20948705.105
 113949320.295 7  88791733.53746  21683843.250                    21683850.813
 120670931.602 6  94029329.13044  22962918.398                    22962926.605
 120613681.440 6  93984724.41043  22952022.906                    22952027.895
 107333582.921 7  83636562.16246  20424897.438                    20424902.453
 119303351.036 7  92963646.10044  22702671.555                    22702674.031
 107715662.686 8  83934306.09147  20497610.297                    20497614.996
 120832042.214 7  94154881.88144  22993576.281                    22993584.441
 134123913.96815                  25522961.008
 18  5  3  1  6 30.0000000  0  9G29G26G32G25G16G14G22G31G03
 119467252.080 7  93091387.55644  22733857.867                    22733864.363
 110025360.340 8  85734087.59547  20937124.891                    20937133.137
 114021285.266 7  88847810.12246  21697537.609                    21697545.387
 120768158.735 6  94105090.49544  22981419.742                    22981428.180
 120505116.742 6  93900128.55843  22931363.328                    22931368.379
 107347799.157 7  83647639.73846  20427602.680                    20427607.887
 119316913.545 7  92974214.27245  22705252.305                    22705255.352
 107729890.658 8  83945392.81147  20500317.727                    20500322.172
 120803666.283 7  94132770.78445  22988177.266                    22988184.789
 18  5  3  1  7  0.0000000  0  9G29G26G32G25G16G14G22G31G03
 119436260.998 7  93067238.67044  22727960.148                    22727966.156
 109965004.221 8  85687056.85347  20925639.430                    20925647.754
 114093625.097 8  88904178.79546  21711303.563                    21711310.840
 120865611.450 6  94181027.65444  22999964.703                    22999972.563
 120396807.408 6  93815731.69344  22910752.820                    22910757.508
 107362464.516 7  83659067.27846  20430393.500                    20430398.184
 119330986.888 7  92985180.50845  22707930.938                    22707933.875
 107744362.659 8  83956669.69447  20503071.781                    20503076.238
 120775852.996 7  94111098.07344  22982884.344                    22982892.043
 18  5  3  1  7 30.0000000  0  9G29G26G32G25G16G14G22G31G03
 119405804.259 7  93043506.16844  22722165.195                    22722170.461
 109905105.860 8  85640382.81447  20914241.141                    20914249.277
 114166338.912 8  88960838.88546  21725140.352                    21725147.848
 120963287.245 6  94257138.61544  23018551.586                    23018560.117
 120288755.728 6  93731535.58444  22890191.047                    22890195.938
 107377580.586 7  83670846.02246  20433270.195                    20433274.828
 119345570.105 7  92996544.05945  22710706.063                    22710708.930
 107759078.347 8  83968136.45447  20505872.063                    20505876.656
 120748603.253 7  94089864.50445  22977698.828                    22977706.383
 18  5  3  1  8  0.0000000  0  9G29G26G32G25G16G14G22G31G03
 119375884.926 7  93020192.41144  22716471.359                    22716477.535
 109845667.204 8  85594066.99247  20902930.500                    20902938.723
 114239426.607 8  89017790.31646  21739048.438                    21739056.164
 121061184.370 6  94333422.06044  23037181.148                    23037189.320
 120180964.971 6  93647542.82044  22869680.078                    22869684.492
 107393148.833 7  83682977.11946  20436232.758                    20436237.379
 119360663.460 7  93008305.08145  22713577.563                    22713580.582
 107774038.136 8  83979793.43347  20508718.867                    20508723.367
 120721918.713 7  94069071.34545  22972620.844                    22972628.277
 18  5  3  1  8 30.0000000  0  9G29G26G32G25G16G14G22G31G03
 119346503.507 7  92997297.80644  22710880.258                    22710885.824
 109786688.301 8  85548109.41247  20891707.156                    20891715.406
 114312886.168 7  89075031.50946  21753027.555                    21753035.328
 121159299.183 6  94409875.12444  23055851.555                    23055859.867
 120073436.205 6  93563754.18044  22849217.508                    22849222.574
 107409168.844 7  83695460.22746  20439281.289                    20439285.551
 119376264.348 7  93020461.58945  22716546.859                    22716549.699
 107789240.535 8  83991639.45347  20511611.945                    20511616.297
 120695798.956 7  94048718.28144  22967650.203                    22967658.219
 18  5  3  1  9  0.0000000  0  9G29G26G32G25G16G14G22G31G03
 119317663.625 7  92974825.18444  22705392.055                    22705397.824
 109728172.057 8  85502512.34647  20880571.938                    20880580.176
 114386718.441 7  89132563.12846  21767077.266                    21767084.992
 121257631.039 6  94486497.30044  23074563.172                    23074571.168
 119966174.028 6  93480173.29344  22828806.289                    22828811.566
 107425643.245 7  83708297.41346  20442416.414                    20442420.887
 119392374.153 7  93033014.68745  22719612.141                    22719614.984
 107804686.875 8  84003675.56147  20514551.211                    20514555.383
 120670246.868 7  94028807.55745  22962788.305                    22962796.055
 18  5  3  1  9 30.0000000  0  9G29G26G32G25G16G14G22G31G03
 119289364.670 7  92952774.06245  22700007.047                    22700013.309
 109670116.806 8  85457274.49647  20869524.359                    20869532.598
 114460919.716 8  89190382.28346  21781197.586                    21781205.055
 121356174.626 6  94563284.47744  23093316.141                    23093324.172
 119859177.554 6  93396799.43744  22808445.758                    22808450.914
 107442569.869 7  83721486.97546  20445637.453                    20445641.836
 119408988.980 7  93045961.28545  22722774.117                    22722776.961
 107820374.192 8  84015899.43347  20517536.227                    20517540.406
 120645260.285 7  94009337.49645  22958033.602                    22958041.363
 18  5  3  1 10  0.0000000  0  9G29G26G32G25G16G14G22G31G03
 119261609.206 7  92931146.42844  22694725.352                    22694731.203
 109612524.745 8  85412397.57447  20858564.992                    20858572.957
 114535490.154 7  89248489.08746  21795387.820                    21795395.773
 121454928.533 6  94640235.52644  23112108.648                    23112116.961
 119752450.340 7  93313635.41144  22788135.836                    22788141.125
 107459950.622 7  83735030.39446  20448945.078                    20448949.242
 119426109.197 7  93059301.68645  22726032.016                    22726035.418
 107836303.259 8  84028311.69147  20520567.313                    20520572.016
 120620841.098 7  93990309.55345  22953386.484                    22953393.918
 18  5  3  1 10 30.0000000  0  9G29G26G32G25G16G14G22G31G03
 119234398.149 7  92909943.00944  22689547.125                    22689553.027
 109555395.905 8  85367881.59947  20847693.500                    20847701.805
 114610427.773 7  89306882.01046  21809647.891                    21809655.656
 121553889.288 6  94717347.76344  23130939.797                    23130948.043
 119645993.792 7  93230682.25944  22767877.945                    22767882.516
 107477785.191 7  83748927.44946  20452338.477                    20452343.176
 119443732.747 7  93073034.31345  22729385.578                    22729388.547
 107852472.578 8  84040911.14647  20523644.320                    20523648.621
 120596989.003 7  93971723.49944  22948847.375                    22948855.000
 18  5  3  1 11  0.0000000  0  9G29G26G32G25G16G14G22G31G03
 119207734.593 7  92889166.21045  22684474.031                    22684479.266
 109498732.792 8  85323728.53647  20836910.945                    20836919.055
 114685733.007 7  89365561.38946  21823978.227                    21823985.570
 121653055.796 6  94794620.32644  23149811.445                    23149818.367
 119539811.937 7  93147943.17344  22747672.320                    22747677.340
 107496075.602 7  83763179.69946  20455819.203                    20455823.711
 119461859.946 7  93087159.38145  22732835.008                    22732838.230
 107868883.320 8  84053698.73347  20526767.406                    20526771.902
 120573706.158 7  93953581.00044  22944416.539                    22944424.488
 18  5  3  1 11 30.0000000  0  9G29G26G32G25G16G14G22G31G03
 119181619.067 7  92868816.44844  22679503.945                    22679509.590
 109442534.967 8  85279938.02347  20826216.727                    20826224.758
 114761403.431 7  89424525.33646  21838377.773                    21838385.508
 121752424.180 6  94872050.18644  23168719.883                    23168727.922
 119433905.354 7  93065418.57344  22727519.219                    22727524.258
 107514821.308 7  83777786.72446  20459386.164                    20459390.867
 119480488.330 7  93101674.99645  22736379.781                    22736382.898
 107885533.542 8  84066672.93047  20529935.633                    20529940.293
 120550991.765 7  93935881.47644  22940094.414                    22940102.238
 18  5  3  1 12  0.0000000  0  9G29G26G32G25G16G14G22G31G03
 119156053.156 7  92848894.95745  22674638.797                    22674644.844
 109386803.305 8  85236510.76247  20815611.852                    20815619.543
 114837437.782 7  89483772.86146  21852846.570                    21852854.238
 121851991.697 6  94949635.23444  23187667.203                    23187675.301
 119328276.236 6  92983110.20044  22707418.523                    22707423.309
 107534022.916 7  83792749.00146  20463039.867                    20463044.770
 119499616.647 7  93116580.16345  22740019.898                    22740022.977
 107902422.752 8  84079833.35247  20533149.703                    20533153.934
 120528846.327 7  93918625.27444  22935880.328                    22935888.047
 18  5  3  1 12 30.0000000  0  9G29G26G32G25G16G14G22G31G03
 119131038.561 7  92829403.07045  22669878.398                    22669884.602
 109331539.033 8  85193447.70147  20805095.297                    20805103.117
 114913835.361 7  89543303.42346  21867384.695                    21867392.465
 121951756.199 6  95027373.75244  23206651.859                    23206659.566
 119222927.433 6  92901020.26144  22687370.773                    22687376.031
 107553681.134 8  83808067.07246  20466781.195                    20466785.676
 119519244.288 7  93131874.40645  22743755.430                    22743758.379
 107919551.035 8  84093180.06147  20536409.352                    20536413.668
 120507270.699 7  93901813.10644  22931774.563                    22931782.137
 18  5  3  1 13  0.0000000  0 10G29G26G32G25G16G14G22G31G03G23
 119106577.158 7  92810342.23245  22665223.531                    22665229.766
 109276743.107 8  85150749.58147  20794667.656                    20794676.176
 114990595.097 8  89603116.18146  21881991.797                    21881998.863
 122051715.184 6  95105263.82944  23225673.313                    23225681.316
 119117860.538 6  92819149.96644  22667377.469                    22667382.152
 107573796.511 7  83823741.37446  20470608.852                    20470613.488
 119539370.219 7  93147556.92745  22747584.945                    22747587.430
 107936917.746 8  84106712.55547  20539713.875                    20539718.051
 120486265.508 7  93885445.41944  22927777.203                    22927784.871
 132690672.93815                  25250201.586
 18  5  3  1 13 30.0000000  0 10G29G26G32G25G16G14G22G31G03G23
 119082670.091 7  92791713.34645  22660674.766                    22660680.430
 109222416.034 8  85108416.79647  20784329.492                    20784337.609
 115067715.493 7  89663209.97846  21896666.891                    21896674.555
 122151865.761 6  95183303.18944  23244731.273                    23244739.500
 119013077.974 6  92737501.23744  22647438.156                    22647442.891
 107594369.299 7  83839772.09446  20474523.547                    20474528.836
 119559992.810 7  93163626.46545  22751508.992                    22751512.016
 107954522.141 8  84120430.25847  20543064.070                    20543068.684
 120465830.860 7  93869522.30044  22923888.516                    22923896.457
 132588184.54515                  25230698.734
 18  5  3  1 14  0.0000000  0 10G29G26G32G25G16G14G22G31G03G23
 119059318.459 7  92773517.26845  22656230.570                    22656236.727
 109168558.507 8  85066449.89747  20774080.688                    20774088.926
 115145195.232 8  89723583.77846  21911411.023                    21911418.586
 122252205.172 6  95261489.70644  23263825.750                    23263833.172
 118908581.501 6  92656075.42944  22627552.617                    22627557.492
 107615399.570 8  83856159.30146  20478525.852                    20478530.414
 119581110.580 7  93180081.86545  22755527.977                    22755531.105
 107972363.735 8  84134332.78947  20546459.016                    20546463.441
 120445967.011 7  93854043.97444  22920108.898                    22920116.516
 132485689.95315                  25211196.453
 18  5  3  1 14 30.0000000  0 10G29G26G32G25G16G14G22G31G03G23
 119036525.557 7  92755756.56145  22651893.859                    22651899.473
 109115172.794 8  85024850.64647  20763921.758                    20763930.094
 115223034.553 8  89784237.77546  21926223.594                    21926230.996
 122352732.324 6  95339822.51344  23282955.188                    23282963.336
 118804374.999 6  92574875.58944  22607722.781                    22607728.195
 107636889.911 7  83872905.01046  20482614.820                    20482619.730
 119602723.821 7  93196923.32145  22759640.758                    22759644.516
 107990443.529 8  84148420.93047  20549899.734                    20549903.703
 120426675.813 7  93839011.88445  22916437.844                    22916445.078
 132383191.62315                  25191690.711
 18  5  3  1 15  0.0000000  0 10G29G26G32G25G16G14G22G31G03G23
 119014291.612 7  92738431.40645  22647662.273                    22647668.695
 109062258.642 8  84983618.84747  20753852.586                    20753860.805
 115301231.225 8  89845170.22146  21941103.883                    21941111.543
 122453443.586 6  95418298.75144  23302120.078                    23302128.258
 118700459.472 6  92493902.46544  22587948.320                    22587952.945
 107658839.340 8  83890008.44446  20486791.820                    20486796.746
 119624830.136 7  93214149.00845  22763847.875                    22763850.512
 108008760.056 8  84162693.54147  20553385.055                    20553389.648
 120407956.650 7  93824425.50545  22912875.938                    22912883.273
 132280692.71115                  25172184.773
 18  5  3  1 15 30.0000000  0 10G29G26G32G25G16G14G22G31G03G23
 118992617.035 7  92721542.13045  22643538.102                    22643543.742
 109009815.843 8  84942754.33147  20743873.031                    20743881.262
 115379783.063 8  89906379.42146  21956051.445                    21956059.254
 122554335.473 6  95496915.77144  23321318.961                    23321327.074
 118596836.263 6  92413157.13144  22568229.484                    22568234.391
 107681247.567 8  83907469.39446  20491056.203                    20491061.254
 119647427.026 7  93231756.96445  22768147.734                    22768150.891
 108027311.760 8  84177149.40647  20556915.453                    20556920.020
 120389808.865 7  93810284.36645  22909422.156                    22909429.898
 132178193.75815 102996041.29852  25152680.602                    25152685.164
 18  5  3  1 16  0.0000000  0 10G29G26G32G25G16G14G22G31G03G23
 118971504.303 7  92705090.64145  22639520.688                    22639526.305
 108957846.097 8  84902258.43147  20733983.734                    20733992.078
 115458689.775 8  89967865.13946  21971067.313                    21971074.563
 122655406.316 6  95575672.23544  23340551.727                    23340560.203
 118493508.307 6  92332641.87144  22548567.125                    22548571.605
 107704115.763 7  83925288.75346  20495407.984                    20495413.098
 119670514.513 7  93249747.18845  22772541.258                    22772544.055
 108046099.379 8  84191789.09847  20560490.289                    20560494.840
 120372233.771 7  93796589.48345  22906077.953                    22906085.160
 132075695.45615 102916172.58052  25133175.164                    25133179.012
 18  5  3  1 16 30.0000000  0 10G29G26G32G25G16G14G22G31G03G23
 118950954.776 7  92689078.03044  22635609.984                    22635615.527
 108906349.725 8  84862131.39147  20724184.102                    20724192.594
 115537949.703 7  90029626.10046  21986149.922                    21986157.477
 122756653.177 6  95654565.85144  23359819.086                    23359826.918
 118390477.096 7  92252357.84344  22528960.656                    22528965.824
 107727443.943 8  83943466.54746  20499847.117                    20499852.070
 119694090.679 7  93268118.21945  22777027.883                    22777030.594
 108065121.878 8  84206611.82447  20564110.648                    20564115.129
 120355231.219 7  93783340.74545  22902843.000                    22902849.566
 131973200.18315 102836306.16952  25113670.992                    25113674.188
 18  5  3  1 17  0.0000000  0 10G29G26G32G25G16G14G22G31G03G23
 118930970.120 7  92673505.55545  22631807.109                    22631813.012
 108855327.890 8  84822374.12747  20714474.828                    20714483.367
 115617562.060 8  90091661.67246  22001299.242                    22001306.719
 122858074.048 6  95733595.03544  23379118.789                    23379126.977
 118287745.397 6  92172307.20044  22509411.273                    22509416.398
 107751232.952 8  83962003.43146  20504374.031                    20504379.027
 119718154.761 7  93286869.42345  22781606.672                    22781610.172
 108084379.103 8  84221617.44247  20567775.156                    20567779.438
 120338802.012 7  93770538.75045  22899716.422                    22899723.543
 131870709.92815 102756443.64552  25094167.773                    25094171.250
 18  5  3  1 17 30.0000000  0 10G29G26G32G25G16G14G22G31G03G23
 118911550.733 7  92658373.56644  22628111.383                    22628117.508
 108804781.268 8  84782987.15247  20704856.359                    20704864.984
 115697525.474 7  90153970.79946  22016515.891                    22016523.383
 122959666.244 6  95812757.72244  23398450.930                    23398459.410
 118185315.356 7  92092491.60944  22489919.828                    22489924.414
 107775483.143 7  83980899.66846  20508988.945                    20508993.445
 119742705.268 7  93305999.66245  22786278.641                    22786281.391
 108103870.275 8  84236805.35747  20571484.148                    20571488.652
 120322946.268 7  93758183.62245  22896699.195                    22896706.504
 131768226.31815                  25074664.773
 18  5  3  1 18  0.0000000  0 10G29G26G32G25G16G14G22G31G03G23
 118892698.830 7  92643683.76345  22624524.375                    22624529.965
 108754710.862 8  84743971.25447  20695328.156                    20695336.543
 115777839.112 7  90216552.82846  22031799.039                    22031806.992
 123061427.641 6  95892052.27344  23417815.180                    23417823.867
 118083189.325 7  92012912.93744  22470485.734                    22470490.070
 107800195.207 8  84000155.81446  20513691.844                    20513696.020
 119767741.023 7  93325508.02745  22791042.984                    22791045.816
 108123595.987 8  84252176.03547  20575237.875                    20575241.871
 120307664.618 7  93746275.82945  22893791.172                    22893798.645
 131665751.83915                  25055165.539
 18  5  3  1 18 30.0000000  0 10G29G26G32G25G16G14G22G31G03G23
 118874414.914 7  92629436.55345  22621045.070                    22621050.914
 108705116.558 8  84705326.34247  20685890.977                    20685899.109
 115858500.827 7  90279406.08046  22047148.898                    22047156.305
 123163354.922 6  95971476.07144  23437211.289                    23437220.090
 117981368.605 7  91933572.12044  22451109.992                    22451114.086
 107825368.591 8  84019771.43246  20518481.688                    20518486.543
 119793259.875 7  93345392.82645  22795898.742                    22795901.156
 108143554.860 8  84267728.39347  20579035.711                    20579039.730
 120292956.402 7  93734814.86845  22890992.375                    22890999.793
 131563287.378 5 102516888.70252  25035665.617                    25035670.813
 18  5  3  1 19  0.0000000  0 10G29G26G32G25G16G14G22G31G03G23
 118856700.701 7  92615633.26345  22617674.117                    22617680.352
 108655999.285 8  84667053.15547  20676544.055                    20676552.066
 115939509.569 7  90342529.75246  22062563.852                    22062571.930
 123265445.802 6  96051027.36843  23456638.375                    23456647.156
 117879855.630 7  91854471.13244  22431792.453                    22431797.016
 107851004.021 8  84039747.08546  20523359.703                    20523364.328
 119819260.610 7  93365653.12245  22800846.633                    22800849.684
 108163746.906 8  84283462.44147  20582878.172                    20582882.402
 120278822.123 7  93723801.12445  22888302.117                    22888310.410
 131460834.918 5 102437055.67842  25016170.711                    25016174.121
 18  5  3  1 19 30.0000000  0 10G29G26G32G25G16G14G22G31G03G23
 118839557.644 7  92602275.03444  22614412.328                    22614417.453
 108607359.952 8  84629152.38447  20667288.039                    20667296.621
 116020864.410 7  90405923.10946  22078045.008                    22078052.883
 123367698.147 6  96130704.45643  23476096.859                    23476105.578
 117778652.596 7  91775611.66144  22412534.164                    22412538.789
 107877102.242 7  84060083.34446  20528326.109                    20528330.914
 119845742.304 7  93386288.19145  22805885.570                    22805889.156
 108184171.528 8  84299377.72447  20586764.859                    20586769.363
 120265262.289 7  93713235.01945  22885722.273                    22885729.852
 131358396.651 5 102357233.74342  24996676.352                    24996680.773
 18  5  3  1 20  0.0000000  0 10G29G26G32G25G16G14G22G31G03G23
 118822987.682 7  92589363.37345  22611258.258                    22611264.547
 108559200.030 8  84591625.17747  20658123.617                    20658131.457
 116102564.773 7  90469585.69846  22093592.195                    22093599.871
 123470110.168 6  96210505.98344  23495585.180                    23495594.180
 117677762.610 7  91696996.13644  22393336.148                    22393340.121
 107903664.304 7  84080781.04546  20533381.086                    20533385.648
 119872703.962 7  93407297.25545  22811016.016                    22811019.336
 108204829.156 8  84315474.56747  20590695.984                    20590700.215
 120252277.745 7  93703117.19045  22883251.828                    22883258.699
 131255975.100 5 102277424.74952  24977187.414                    24977191.027
 18  5  3  1 20 30.0000000  0 10G29G26G32G25G16G14G22G31G03G23
 118806990.165 7  92576897.78045  22608214.734                    22608220.242
 108511518.338 8  84554470.61947  20649050.203                    20649058.750
 116184607.612 7  90533515.14946  22109204.688                    22109212.094
 123572677.849 6  96290428.78343  23515103.336                    23515111.555
 117577185.851 7  91618624.65344  22374195.930                    22374200.996
 107930688.911 7  84101839.16846  20538523.359                    20538528.207
 119900142.595 7  93428677.99745  22816238.063                    22816240.582
 108225717.863 8  84331751.47147  20594670.891                    20594674.945
 120239866.840 7  93693446.35145  22880889.789                    22880897.402
 131153570.405 5 102197628.88842  24957700.227                    24957703.902
 18  5  3  1 21  0.0000000  0 10G29G26G32G25G16G14G22G31G03G23
 118791566.939 7  92564879.68245  22605279.945                    22605285.367
 108464315.882 8  84517689.49247  20640067.891                    20640076.211
 116266991.961 7  90597710.72346  22124881.914                    22124889.418
 123675399.018 6  96370471.20544  23534651.109                    23534658.910
 117476924.941 7  91540499.29044  22355117.133                    22355122.219
 107958176.444 8  84123258.01046  20543754.156                    20543758.727
 119928056.826 7  93450429.32045  22821549.852                    22821552.699
 108246837.641 8  84348208.42447  20598689.852                    20598694.176
 120228030.155 7  93684222.95445  22878636.859                    22878644.988
 131051184.580 5 102117847.78442  24938216.430                    24938220.410
 18  5  3  1 21 30.0000000  0 10G29G26G32G25G16G14G22G31G03G23
 118776718.253 7  92553309.28045  22602453.734                    22602459.660
 108417592.485 8  84481281.66047  20631176.641                    20631184.980
 116349715.766 7  90662170.78546  22140624.141                    22140631.469
 123778270.379 6  96450630.66543  23554226.273                    23554234.699
 117376981.090 7  91462620.99144  22336098.523                    22336103.211
 107986126.211 7  84145037.03446  20549072.906                    20549077.684
 119956444.510 7  93472549.57445  22826951.898                    22826954.789
 108268187.038 8  84364844.31747  20602752.344                    20602756.719
 120216766.927 7  93675446.39145  22876494.266                    22876501.703
 130948819.010 5 102038082.49042  24918737.375                    24918740.508
 18  5  3  1 22  0.0000000  0 10G29G26G32G25G16G14G22G31G03G23
 118762447.468 7  92542189.19144  22599738.086                    22599743.871
 108371351.120 8  84445249.43247  20622377.453                    20622385.305
 116432779.981 7  90726896.11346  22156430.516                    22156437.711
 123881291.888 6  96530907.08843  23573830.398                    23573839.086
 117277358.666 7  91384993.14244  22317141.141                    22317146.160
 108014541.068 7  84167178.46746  20554479.867                    20554484.629
 119985306.535 7  93495039.44445  22832444.273                    22832447.238
 108289768.241 8  84381660.83147  20606859.117                    20606863.602
 120206079.548 7  93667118.56045  22874459.898                    22874467.629
 130846477.788 5 101958335.93042  24899261.500                    24899266.676
 18  5  3  1 22 30.0000000  0 10G29G26G32G25G16G14G22G31G03G23
 118748753.360 7  92531518.46845  22597132.031                    22597138.418
 108325589.919 8  84409591.36147  20613669.258                    20613677.293
 116516181.048 7  90791883.92946  22172301.391                    22172308.750
 123984458.918 6  96611296.93143  23593462.453                    23593471.250
 117178057.471 7  91307615.60645  22298244.516                    22298249.711
 108043419.077 7  84189680.79546  20559975.195                    20559979.703
 120014639.092 7  93517895.95545  22838025.727                    22838028.957
 108311578.513 8  84398655.84247  20611009.641                    20611014.016
 120195965.834 7  93659237.75145  22872535.359                    22872543.641
 130744160.385 6 101878608.24742  24879792.250                    24879796.184
 18  5  3  1 23  0.0000000  0 10G29G26G32G25G16G14G22G31G03G23
 118735639.347 7  92521299.76545  22594636.469                    22594643.008
 108280311.442 8  84374309.44047  20605052.906                    20605061.109
 116599919.499 7  90857134.63146  22188236.289                    22188243.816
 124087770.990 6  96691799.80444  23613123.031                    23613131.043
 117079081.443 7  91230491.44245  22279409.867                    22279415.434
 108072762.606 7  84212545.86746  20565559.211                    20565563.922
 120044442.647 7  93541119.49045  22843697.211                    22843700.324
 108333619.411 8  84415830.56047  20615204.109                    20615208.398
 120186427.721 7  93651805.44345  22870720.141                    22870728.387
 130641870.868 5 101798902.09642  24860326.258                    24860331.254
 18  5  3  1 23 30.0000000  0 10G29G26G32G25G16G14G22G31G03G23
 118723104.883 7  92511532.65445  22592250.852                    22592257.348
 108235515.077 8  84339403.18547  20596528.469                    20596536.297
 116683992.855 7  90922646.29946  22204235.164                    22204242.656
 124191224.399 6  96772412.79344  23632809.648                    23632817.641
 116980431.514 7  91153621.39245  22260637.078                    22260642.676
 108102570.567 7  84235772.82846  20571231.672                    20571236.203
 120074714.095 7  93564707.61545  22849458.070                    22849460.813
 108355889.506 8  84433183.86947  20619441.750                    20619446.133
 120177463.972 7  93644820.71045  22869014.695                    22869022.664
 130539610.000 5 101719218.34742  24840867.055                    24840870.734
 18  5  3  1 24  0.0000000  0 10G29G26G32G25G16G14G22G31G03G23
 118711148.976 7  92502216.37645  22589976.867                    22589982.535
 108191199.063 8  84304871.23047  20588095.516                    20588103.625
 116768397.477 7  90988416.09946  22220296.781                    22220303.891
 124294814.649 6  96853132.40443  23652522.484                    23652530.773
 116882107.535 7  91077005.34044  22241927.289                    22241932.117
 108132840.833 7  84259360.04546  20576991.703                    20576996.469
 120105449.764 7  93588657.46544  22855306.875                    22855309.613
 108378386.227 8  84450713.77747  20623722.922                    20623727.203
 120169072.385 7  93638281.79245  22867418.117                    22867426.246
 130437377.395 5 101639556.61642  24821412.320                    24821416.789
 18  5  3  1 24 30.0000000  0 10G29G26G32G25G16G14G22G31G03G23
 118699776.079 7  92493354.38345  22587811.867                    22587818.512
 108147367.438 8  84270716.72247  20579754.672                    20579763.117
 116853135.515 7  91054445.69846  22236421.500                    22236429.172
 124398542.851 6  96933959.48943  23672261.086                    23672269.129
 116784115.012 7  91000647.53344  22223280.211                    22223285.191
 108163577.024 7  84283310.29946  20582840.727                    20582845.645
 120136651.612 7  93612970.57245  22861244.055                    22861247.152
 108401112.728 8  84468422.72847  20628047.688                    20628052.180
 120161256.372 7  93632191.38745  22865930.344                    22865937.910
 130335178.369 5 101559921.05342  24801964.805                    24801968.754
 18  5  3  1 25  0.0000000  0 10G29G26G32G25G16G14G22G31G03G23
 118688985.684 7  92484946.28645  22585758.641                    22585764.387
 108104018.981 8  84236938.71147  20571505.484                    20571514.184
 116938203.890 7  91120732.70746  22252609.500                    22252617.184
 124502404.879 6  97014890.89443  23692025.313                    23692033.402
 116686454.276 7  90924548.27345  22204695.328                    22204700.570
 108194777.792 7  84307622.57346  20588777.836                    20588782.430
 120168316.259 7  93637644.30145  22867269.977                    22867273.156
 108424066.804 8  84486309.00947  20632415.617                    20632419.641
 120154014.168 7  93626548.10245  22864551.609                    22864560.070
 130233013.141 6 101480311.81842  24782523.789                    24782526.855
 18  5  3  1 25 30.0000000  0 10G29G26G32G25G16G14G22G31G03G23
 118678778.989 7  92476993.02244  22583816.688                    22583822.672
 108061154.580 8  84203537.87747  20563348.453                    20563357.078
 117023601.565 7  91187276.31446  22268860.398                    22268867.813
 124606398.810 5  97095925.05543  23711814.602                    23711822.520
 116589127.780 7  90848709.47645  22186175.023                    22186180.430
 108226443.888 7  84332297.43546  20594803.727                    20594808.422
 120200442.668 7  93662677.84345  22873383.406                    22873386.211
 108447248.413 8  84504372.59647  20636826.844                    20636831.457
 120147346.042 7  93621352.15445  22863283.430                    22863291.586
 130130884.350 6 101400730.95542  24763089.375                    24763092.879
 18  5  3  1 26  0.0000000  0 10G29G26G32G25G16G14G22G31G03G23
 118669156.856 7  92469495.27045  22581985.273                    22581991.652
 108018774.571 8  84170514.49347  20555284.000                    20555292.824
 117109327.093 7  91254075.39446  22285173.352                    22285181.277
 124710522.196 5  97177060.09743  23731628.758                    23731637.055
 116492137.374 7  90773132.56445  22167718.406                    22167723.551
 108258575.106 7  84357334.72646  20600918.508                    20600923.199
 120233028.954 7  93688069.73345  22879584.328                    22879587.230
 108470657.369 8  84522613.33247  20641281.375                    20641285.863
 120141251.804 7  93616603.41445  22862124.125                    22862131.945
 130028793.77516 101321179.88252  24743661.742                    24743665.227
 18  5  3  1 26 30.0000000  0 10G29G26G32G25G16G14G22G31G03G23
 118660119.882 7  92462453.47244  22580265.750                    22580271.305
 107976879.004 8  84137868.59647  20547311.727                    20547319.824
 117195378.609 7  91321128.49146  22301548.727                    22301556.141
 124814772.373 6  97258293.94543  23751465.883                    23751475.367
 116395484.723 7  90697818.83445  22149326.211                    22149330.789
 108291171.340 7  84382734.38046  20607121.008                    20607125.902
 120266072.989 7  93713818.30045  22885872.430                    22885875.344
 108494292.893 8  84541030.61247  20645778.969                    20645783.543
 120135730.927 7  93612301.40845  22861072.883                    22861081.016
 129926742.611 6 101241659.54342  24724241.734                    24724246.348
 18  5  3  1 27  0.0000000  0 10G29G26G32G25G16G14G22G31G03G23
 118651669.720 7  92455868.93744  22578657.734                    22578663.555
 107935469.076 8  84105601.12247  20539431.313                    20539439.859
 117281755.572 7  91388435.17745  22317984.984                    22317992.848
 124919147.651 6  97339625.26043  23771328.711                    23771337.027
 116299172.584 7  90622770.43945  22130998.016                    22131003.055
 108324233.307 7  84408496.92846  20613412.492                    20613417.445
 120299574.095 7  93739923.05445  22892247.266                    22892250.836
 108518155.520 8  84559624.85847  20650320.008                    20650324.590
 120130783.961 7  93608446.62345  22860131.664                    22860139.324
 129824734.000 5 101162172.38742  24704829.852                    24704834.684
 18  5  3  1 27 30.0000000  0 10G29G26G32G25G16G14G22G31G03G23
 118643806.198 7  92449741.51944  22577160.914                    22577167.527
 107894544.276 8  84073711.66447  20531643.906                    20531651.820
 117368455.523 7  91455993.54745  22334484.172                    22334491.336
 125023644.875 6  97421051.59543  23791213.813                    23791222.734
 116203202.132 7  90547988.28645  22112736.102                    22112740.523
 108357760.270 7  84434621.83046  20619792.570                    20619797.523
 120333529.315 7  93766381.64945  22898708.930                    22898712.582
 108542243.720 8  84578394.88247  20654903.695                    20654907.836
 120126409.812 7  93605038.18845  22859299.320                    22859306.664
 129722768.897 5 101082719.08942  24685426.297                    24685431.547
 18  5  3  1 28  0.0000000  0 10G29G26G32G25G16G14G22G31G03G23
 118636530.010 7  92444071.76944  22575776.977                    22575782.902
 107854104.873 8  84042200.44647  20523948.586                    20523956.535
 117455476.982 7  91523802.43945  22351043.602                    22351050.988
 125128261.630 6  97502571.08143  23811122.391                    23811130.563
 116107575.054 7  90473473.70545  22094538.406                    22094543.418
 108391752.310 7  84461109.11846  20626261.281                    20626266.055
 120367936.824 7  93793192.67345  22905256.703                    22905259.961
 108566557.172 8  84597340.42247  20659530.563                    20659534.852
 120122608.114 7  93602075.80845  22858576.250                    22858583.680
 129620849.165 5 101003301.13442  24666032.117                    24666036.895
 18  5  3  1 28 30.0000000  0 10G29G26G32G25G16G14G22G31G03G23
 118629843.028 7  92438861.12344  22574504.391                    22574509.973
 107814152.054 8  84011068.38247  20516345.828                    20516353.859
 117542819.237 7  91591861.30745  22367664.258                    22367671.996
 125232996.324 6  97584182.46343  23831051.977                    23831060.867
 116012294.162 7  90399228.88445  22076407.523                    22076411.848
 108426210.212 8  84487959.42046  20632818.313                    20632823.188
 120402795.961 7  93820355.61045  22911890.266                    22911893.559
 108591096.413 8  84616461.90147  20664200.266                    20664204.879
 120119379.434 7  93599559.93845  22857962.242                    22857969.148
 129518977.547 6 100923920.68542  24646646.523                    24646650.199
 18  5  3  1 29  0.0000000  0 10G29G26G32G25G16G14G22G31G03G23
 118623744.927 7  92434109.36845  22573343.961                    22573349.969
 107774685.272 8  83980315.04447  20508835.578                    20508843.680
 117630480.034 7  91660168.38545  22384345.672                    22384353.480
 125337845.906 5  97665883.36843  23851004.289                    23851012.762
 115917360.419 7  90325254.56245  22058342.078                    22058346.430
 108461133.178 8  84515172.10846  20639463.711                    20639468.668
 120438103.779 7  93847868.16845  22918608.820                    22918612.480
 108615860.206 8  84635758.35447  20668912.719                    20668917.066
 120116722.627 7  93597489.69145  22857456.422                    22857463.332
 129417155.328 6 100844578.73942  24627270.758                    24627274.074
 18  5  3  1 29 30.0000000  0 10G29G26G32G25G16G14G22G31G03G23
 118618235.895 7  92429816.60244  22572295.883                    22572301.934
 107735704.174 8  83949940.16847  20501417.508                    20501425.742
 117718457.117 7  91728721.92345  22401087.242                    22401094.734
 125442807.301 6  97747671.39943  23870978.219                    23870986.344
 115822775.320 7  90251551.91545  22040342.844                    22040347.098
 108496520.564 8  84542746.67346  20646197.836                    20646202.906
 120473857.977 7  93875728.55345  22925412.703                    22925415.500
 108640847.587 8  84655229.02647  20673667.461                    20673672.289
 120114636.648 7  93595864.22745  22857059.422                    22857066.145
 129315383.749 6 100765276.25042  24607903.617                    24607908.199
 18  5  3  1 30  0.0000000  0 10G29G26G32G25G16G14G22G31G03G23
 118613318.595 7  92425984.93844  22571359.898                    22571365.891
 107697210.949 8  83919945.45247  20494092.398                    20494100.836
 117806750.965 7  91797522.28945  22417888.977                    22417896.645
 125547880.223 6  97829546.32943  23890972.555                    23890981.125
 115728542.629 7  90178123.86545  22022410.867                    22022415.332
 108532374.229 8  84570684.58346  20653020.570                    20653025.504
 120510058.796 7  93903936.96845  22932301.320                    22932305.004
 108666060.377 8  84674875.34947  20678465.227                    20678469.535
 120113123.052 7  93594684.79145  22856770.727                    22856778.426
 129213666.854 6 100686016.35642  24588549.781                    24588551.547
 18  5  3  1 30 30.0000000  0 10G29G26G32G25G16G14G22G31G03G23
 118608992.395 7  92422613.87045  22570536.766                    22570542.398
 107659204.296 8  83890329.88547  20486860.141                    20486868.473
 117895358.432 7  91866567.03445  22434750.305                    22434758.402
 125653060.651 6  97911505.05543  23910988.609                    23910996.270
 115634662.482 7  90104970.51845  22004545.969                    22004550.586
 108568692.749 8  84598984.70646  20659931.664                    20659936.742
 120546702.902 7  93932490.79045  22939274.367                    22939278.000
 108691496.452 8  84694695.65947  20683305.805                    20683309.961
 120112179.882 7  93593949.83145  22856591.609                    22856599.379
 129112004.788 6 100606799.16943  24569202.703                    24569205.598
 18  5  3  1 31  0.0000000  0 10G29G26G32G25G16G14G22G31G03G23
 118605257.250 7  92419703.36344  22569826.023                    22569831.512
 107621684.273 8  83861093.50547  20479720.570                    20479728.496
 117984277.824 7  91935854.84245  22451671.031                    22451678.879
 125758346.165 6  97993545.64143  23931023.547                    23931031.602
 115541136.751 7  90032093.33745  21986748.852                    21986753.383
 108605475.938 8  84627646.91446  20666931.148                    20666935.738
 120583787.625 7  93961387.95644  22946331.242                    22946334.789
 108717155.061 8  84714689.37147  20688188.250                    20688193.051
 120111806.573 7  93593658.95244  22856521.195                    22856527.457
 129010399.294 5 100527626.09942  24549867.258                    24549870.969
 18  5  3  1 31 30.0000000  0 10G29G26G32G25G16G14G22G31G03G23
 118602114.974 7  92417254.83044  22569228.078                    22569233.680
 107584652.244 8  83832237.38847  20472673.477                    20472681.551
 118073508.672 7  92005385.34245  22468651.820                    22468659.152
 125863735.673 6  98075667.27743  23951078.805                    23951086.793
 115447968.392 7  89959494.64545  21969019.273                    21969024.578
 108642724.713 8  84656671.91446  20674019.719                    20674024.434
 120621312.642 7  93990628.20544  22953472.469                    22953475.445
 108743037.124 8  84734857.19547  20693113.336                    20693118.047
 120112003.776 7  93593812.58444  22856558.336                    22856565.133
 128908854.023 6 100448499.94242  24530543.523                    24530547.488
 18  5  3  1 32  0.0000000  0 10G29G26G32G25G16G14G22G31G03G23
 118599565.609 7  92415268.30644  22568742.664                    22568748.441
 107548107.287 8  83803760.80247  20465718.672                    20465727.164
 118163048.374 7  92075156.50045  22485690.063                    22485697.969
 125969225.759 6  98157867.23943  23971152.438                    23971161.129
 115355157.859 7  89887174.76145  21951358.141                    21951362.723
 108680437.988 7  84686058.86146  20681196.008                    20681201.098
 120659275.160 7  94020209.37544  22960696.477                    22960699.086
 108769141.279 8  84755198.08047  20698080.844                    20698085.555
 120112769.953 7  93594409.58545  22856703.992                    22856711.230
 128807369.502 6 100369421.13043  24511231.508                    24511234.961
 18  5  3  1 32 30.0000000  0 10G29G26G32G25G16G14G22G31G03G23
 118597611.583 7  92413745.66644  22568370.531                    22568377.230
 107512052.127 8  83775665.88347  20458857.867                    20458866.031
 118252897.820 7  92145169.02845  22502788.211                    22502795.680
 126074816.600 6  98240145.77443  23991245.773                    23991253.953
 115262709.743 7  89815137.28045  21933765.625                    21933770.598
 108718617.956 8  84715809.46746  20688461.781                    20688466.688
 120697675.338 7  94050131.55545  22968003.742                    22968006.613
 108795469.803 8  84775713.80447  20703090.984                    20703095.590
 120114107.082 7  93595451.48745  22856958.344                    22856965.688
 128705950.688 6 100290393.53243  24491933.000                    24491936.520
 18  5  3  1 33  0.0000000  0 10G29G26G32G25G16G14G22G31G03G23
 118596249.961 7  92412684.66244  22568111.664                    22568117.621
 107476483.338 8  83747949.95247  20452089.289                    20452097.883
 118343051.858 7  92215418.90045  22519943.789                    22519951.930
 126180502.413 6  98322498.30443  24011357.188                    24011365.453
 115170622.404 7  89743380.93045  21916242.195                    21916247.016
 108757261.147 8  84745921.02246  20695815.141                    20695819.652
 120736507.756 7  94080390.55644  22975393.711                    22975396.383
 108822018.705 8  84796401.24747  20708143.195                    20708147.992
 120116011.065 7  93596935.11745  22857320.664                    22857328.629
 128604595.526 6 100211415.48542  24472645.961                    24472649.379
 18  5  3  1 33 30.0000000  0 10G29G26G32G25G16G14G22G31G03G23
 118595484.358 7  92412088.07644  22567966.242                    22567972.223
 107441404.074 8  83720615.47447  20445413.969                    20445422.434
 118433511.909 7  92285907.22745  22537157.875                    22537165.547
 126286283.925 6  98404925.39043  24031487.109                    24031495.398
 115078900.477 7  89671909.31745  21898788.250                    21898792.434
 108796370.385 8  84776395.73846  20703257.250                    20703262.223
 120775773.592 7  94110987.28544  22982865.688                    22982868.172
 108848790.529 8  84817262.39147  20713237.711                    20713241.844
 120118484.371 7  93598862.35645  22857790.930                    22857799.590
 128503309.223 6 100132491.14442  24453370.484                    24453375.125
 18  5  3  1 34  0.0000000  0 10G29G26G32G25G16G14G22G31G03G23
 118595312.994 7  92411954.53045  22567933.664                    22567939.363
 107406812.265 8  83693660.83147  20438831.586                    20438839.734
 118524274.170 7  92356631.03945  22554429.039                    22554436.781
 126392156.659 6  98487423.57343  24051633.266                    24051642.281
 114987543.590 7  89600722.15145  21881403.258                    21881408.148
 108835943.219 8  84807231.69346  20710787.953                    20710792.746
 120815468.458 7  94141918.34144  22990419.016                    22990421.523
 108875782.582 8  84838295.14947  20718374.227                    20718378.754
 120121524.191 7  93601231.04045  22858369.523                    22858377.898
 128402092.121 6 100053620.72742  24434110.047                    24434114.023
 18  5  3  1 34 30.0000000  0 10G29G26G32G25G16G14G22G31G03G23
 118595737.919 7  92412285.62645  22568014.469                    22568020.516
 107372709.486 8  83667087.24047  20432341.828                    20432349.773
 118615338.459 7  92427590.19145  22571758.547                    22571765.965
 126498119.869 6  98569992.24843  24071798.094                    24071806.039
 114896555.080 7  89529822.03145  21864088.742                    21864093.875
 108875980.815 8  84838429.80346  20718407.219                    20718411.723
 120855592.119 7  94173183.49544  22998054.344                    22998057.047
 108902996.272 8  84859500.60247  20723552.875                    20723557.398
 120125131.397 7  93604041.84145  22859055.875                    22859064.156
 128300947.027 6  99974806.38643  24414863.461                    24414866.258
 18  5  3  1 35  0.0000000  0 10G29G26G32G25G16G14G22G31G03G23
 118596759.146 7  92413081.38145  22568208.734                    22568214.641
 107339095.677 8  83640894.67547  20425945.320                    20425954.098
 118706703.053 7  92498783.34445  22589144.242                    22589152.301
 126604171.169 6  98652629.56943  24091978.750                    24091987.188
 114805936.423 7  89459210.10745  21846845.383                    21846849.629
 108916483.236 8  84869990.12046  20726113.953                    20726118.973
 120896142.212 7  94204780.93444  23005770.891                    23005773.637
 108930431.114 8  84880878.39047  20728773.297                    20728777.871
 120129305.257 7  93607294.19145  22859850.414                    22859858.789
 128199876.062 6  99896049.81543  24395629.227                    24395633.094
 18  5  3  1 35 30.0000000  0 10G29G26G32G25G16G14G22G31G03G23
 118598376.594 7  92414341.71944  22568516.492                    22568522.742
 107305970.334 8  83615082.72647  20419641.883                    20419650.000
 118798365.752 7  92570208.79745  22606587.109                    22606594.973
 126710307.728 6  98735333.31543  24112176.883                    24112184.398
 114715688.955 7  89388887.41845  21829671.203                    21829675.840
 108957449.459 8  84901911.82846  20733909.703                    20733914.617
 120937116.220 7  94236708.69444  23013568.039                    23013570.652
 108958086.325 8  84902427.89447  20734036.148                    20734040.453
 120134044.463 7  93610987.05745  22860752.016                    22860760.422
 128098880.857 6  99817352.27543  24376411.141                    24376414.648
 18  5  3  1 36  0.0000000  0 10G29G26G32G25G16G14G22G31G03G23
 118600590.698 7  92416066.98544  22568938.133                    22568943.906
 107273333.658 8  83589651.56447  20413431.266                    20413439.863
 118890325.000 7  92641865.32845  22624086.289                    22624094.352
 126816527.503 6  98818101.91743  24132388.773                    24132397.578
 114625814.589 7  89318855.46545  21812568.828                    21812573.402
 108998879.396 8  84934194.87746  20741793.336                    20741798.566
 120978512.200 7  94268965.27444  23021445.320                    23021448.227
 108985961.498 8  84924148.79547  20739340.758                    20739344.992
 120139348.517 7  93615120.07645  22861762.188                    22861769.949
 127997963.476 6  99738715.39943  24357206.938                    24357210.578
 18  5  3  1 36 30.0000000  0 10G29G26G32G25G16G14G22G31G03G23
 118603401.215 7  92418256.98645  22569473.125                    22569479.016
 107241184.875 8  83564600.56647  20407313.656                    20407321.879
 118982578.353 7  92713751.02445  22641642.063                    22641649.738
 126922827.468 6  98900933.01243  24152617.266                    24152625.293
 114536314.083 7  89249114.82445  21795537.320                    21795541.734
 109040771.916 8  84966838.37646  20749765.781                    20749770.352
 121020327.244 7  94301548.39744  23029402.180                    23029405.543
 109014055.719 8  84946040.37747  20744686.828                    20744691.137
 120145215.904 7  93619692.04945  22862877.977                    22862886.215
 127897125.337 6  99660140.26443  24338017.789                    24338021.402
 18  5  3  1 37  0.0000000  0 10G29G26G32G25G16G14G22G31G03G23
 118606810.229 7  92420913.34944  22570121.438                    22570127.375
 107209525.766 8  83539931.14347  20401289.102                    20401296.945
 119075125.921 7  92785865.98045  22659253.094                    22659261.180
 127029207.149 6  98983826.22243  24172860.969                    24172869.219
 114447191.077 7  89179668.35645  21778577.508                    21778582.281
 109083128.770 8  84999843.70546  20757826.211                    20757830.668
 121062560.840 7  94334457.67644  23037439.367                    23037442.664
 109042370.414 8  84968103.76347  20750074.656                    20750079.672
 120151647.592 7  93624703.74045  22864102.063                    22864110.453
 127796370.131 6  99581629.73643  24318845.031                    24318848.816
 18  5  3  1 37 30.0000000  0 10G29G26G32G25G16G14G22G31G03G23
 118610816.566 7  92424035.15945  22570883.664                    22570889.531
 107178355.036 8  83515642.26447  20395357.594                    20395365.613
 119167964.673 7  92858207.82445  22676919.406                    22676927.770
 127135663.113 6  99066778.83543  24193117.813                    24193127.105
 114358445.722 7  89110516.13845  21761689.883                    21761694.406
 109125948.147 8  85033209.43146  20765974.109                    20765978.977
 121105210.100 7  94367690.83244  23045555.148                    23045557.941
 109070903.530 8  84990337.34947  20755504.609                    20755509.242
 120158641.527 7  93630153.55845  22865432.875                    22865441.348
 127695698.698 6  99503184.53843  24299688.359                    24299691.262
 18  5  3  1 38  0.0000000  0 10G29G26G32G25G16G14G22G31G03G23
 118615421.838 7  92427623.68245  22571760.109                    22571766.234
 107147673.973 8  83491734.94247  20389519.102                    20389526.773
 119261094.304 7  92930776.32545  22694641.641                    22694649.559
 127242194.347 6  99149790.16343  24213390.633                    24213399.805
 114270081.441 7  89041660.86345  21744874.750                    21744878.934
 109169231.258 8  85066936.51446  20774210.789                    20774215.523
 121148274.040 7  94401247.13844  23053749.922                    23053752.938
 109099656.433 8  85012742.19847  20760975.938                    20760980.746
 120166198.302 7  93636041.94545  22866871.219                    22866879.508
 127595114.506 6  99424807.25343  24280547.070                    24280550.332
 18  5  3  1 38 30.0000000  0 10G29G26G32G25G16G14G22G31G03G23
 118620624.328 7  92431677.55945  22572750.094                    22572756.297
 107117480.732 8  83468207.74547  20383773.570                    20383781.688
 119354511.266 7  93003568.72445  22712418.398                    22712426.078
 127348797.028 6  99232857.13243  24233676.570                    24233685.141
 114182097.836 7  88973102.22545  21728132.016                    21728136.582
 109212975.993 8  85101023.30146  20782535.266                    20782539.785
 121191748.740 7  94435123.50244  23062023.086                    23062025.840
 109128627.059 8  85035316.69447  20766488.883                    20766493.887
 120174315.235 7  93642366.79645  22868415.859                    22868423.449
 127494617.848 6  99346498.23743  24261423.914                    24261426.258
 18  5  3  1 39  0.0000000  0 10G29G26G32G25G16G14G22G31G03G23
 118626425.347 7  92436197.82144  22573854.281                    22573859.898
 107087776.560 8  83445061.63847  20378120.961                    20378128.949
 119448215.162 7  93076584.71545  22730249.805                    22730257.500
 127455470.235 6  99315979.04543  24253975.898                    24253984.453
 114094497.834 7  88904842.49545  21711461.906                    21711466.164
 109257183.122 8  85135470.39746  20790947.289                    20790952.352
 121235633.143 7  94469319.11344  23070373.766                    23070376.445
 109157816.289 8  85058061.54047  20772043.734                    20772047.977
 120182992.801 7  93649128.53545  22870067.367                    22870074.918
 127394212.315 6  99268260.20843  24242317.617                    24242320.512
 18  5  3  1 39 30.0000000  0 10G29G26G32G25G16G14G22G31G03G23
 118632824.455 7  92441184.13645  22575071.781                    22575077.613
 107058560.090 8  83422295.55047  20372560.961                    20372569.797
 119542203.031 7  93149821.97245  22748135.172                    22748142.605
 127562210.547 6  99399153.26743  24274288.375                    24274297.008
 114007281.942 7  88836882.07745  21694865.484                    21694870.258
 109301851.027 8  85170276.53846  20799447.578                    20799452.512
 121279923.821 6  94503831.29544  23078802.203                    23078805.563
 109187222.593 8  85080975.53747  20777639.172                    20777644.215
 120192228.909 7  93656325.47145  22871824.492                    22871832.469
 127293898.559 6  99190093.65543  24223228.313                    24223231.344
 18  5  3  1 40  0.0000000  0 10G29G26G32G25G16G14G22G31G03G23
 118639822.655 7  92446637.27944  22576403.383                    22576409.285
 107029832.565 8  83399910.46947  20367094.391                    20367102.926
 119636474.460 7  93223280.18745  22766073.828                    22766082.227
 127669017.064 6  99482379.08043  24294613.086                    24294621.414
 113920452.948 7  88769223.13145  21678342.539                    21678347.004
 109346980.935 8  85205442.68446  20808035.344                    20808040.316
 121324620.162 7  94538659.58744  23087308.070                    23087310.793
 109216846.888 8  85104059.38647  20783276.250                    20783281.422
 120202023.888 7  93663957.90045  22873688.266                    22873696.176
 127193679.992 6  99112001.31043  24204156.750                    24204160.078
 18  5  3  1 40 30.0000000  0 10G29G26G32G25G16G14G22G31G03G23
 118647419.607 7  92452556.97444  22577848.930                    22577854.723
 107001593.151 8  83377905.72347  20361720.641                    20361728.918
 119731026.938 7  93296957.39745  22784067.008                    22784074.914
 127775886.995 6  99565654.27943  24314949.305                    24314957.445
 113834011.763 7  88701866.37945  21661893.398                    21661898.398
 109392571.318 8  85240967.64546  20816710.602                    20816715.992
 121369719.233 7  94573801.68444  23095889.430                    23095892.633
 109246688.396 8  85127312.49347  20788955.227                    20788960.188
 120212376.147 7  93672024.59545  22875658.242                    22875666.469
 127093558.125 6  99033984.31243  24185104.680                    24185108.109
 18  5  3  1 41  0.0000000  0 10G29G26G32G25G16G14G22G31G03G23
 118655615.407 7  92458943.29745  22579408.719                    22579414.758
 106973842.208 8  83356281.60947  20356439.789                    20356448.281
 119825859.276 7  93370852.68545  22802112.945                    22802120.867
 127882818.605 6  99648977.57843  24335297.305                    24335305.953
 113747960.741 7  88634813.65145  21645518.688                    21645523.270
 109438622.441 8  85276851.61646  20825474.273                    20825479.344
 121415219.358 7  94609256.31244  23104548.656                    23104551.656
 109276746.921 8  85150734.70347  20794675.227                    20794680.027
 120223285.230 7  93680525.16345  22877734.711                    22877742.047
 126993535.423 6  98956044.57843  24166070.453                    24166074.414
 18  5  3  1 41 30.0000000  0 10G29G26G32G25G16G14G22G31G03G23
 118664410.448 7  92465796.58545  22581082.586                    22581088.313
 106946579.701 8  83335038.09947  20351252.250                    20351260.172
 119920969.727 7  93444964.69045  22820212.141                    22820220.043
 127989809.931 6  99732347.39443  24355657.000                    24355666.781
 113662301.627 7  88568066.29845  21629217.938                    21629222.844
 109485133.984 8  85313094.35446  20834325.203                    20834330.250
 121461118.304 7  94645021.68644  23113282.352                    23113285.566
 109307022.314 8  85174325.91147  20800436.531                    20800441.066
 120234750.213 7  93689458.89745  22879916.219                    22879923.660
 126893614.177 6  98878183.90743  24147055.977                    24147059.758
 18  5  3  1 42  0.0000000  0 10G29G26G32G25G16G14G22G31G03G23
 118673803.403 7  92473115.76744  22582869.852                    22582875.559
 106919804.096 8  83314173.98147  20346156.797                    20346164.977
 120016355.291 7  93519291.07045  22838363.750                    22838371.020
 128096857.567 6  99815761.06443  24376027.250                    24376037.016
 113577034.530 7  88501624.41245  21612992.125                    21612997.281
 109532104.319 8  85349694.59346  20843263.164                    20843268.176
 121507412.455 7  94681095.02344  23122091.836                    23122095.941
 109337513.246 8  85198085.05947  20806238.844                    20806243.129
 120246768.879 7  93698824.08045  22882203.563                    22882211.199
 126793795.357 6  98800403.05443  24128061.078                    24128065.305
 18  5  3  1 42 30.0000000  0 10G29G26G32G25G16G14G22G31G03G23
 118683797.267 7  92480903.19844  22584771.289                    22584777.133
 106893518.310 8  83293691.55747  20341154.906                    20341163.254
 120112017.243 7  93593832.82645  22856567.320                    22856575.172
 128203962.402 6  99899219.31842  24396409.406                    24396418.352
 113492163.838 7  88435491.41345  21596841.828                    21596846.613
 109579535.920 8  85386654.27146  20852289.000                    20852294.086
 121554102.777 7  94717477.07244  23130977.398                    23130980.184
 109368222.228 8  85222014.12447  20812082.664                    20812087.648
 120259343.166 7  93708622.19745  22884596.070                    22884603.727
 126694084.099 6  98722706.00043  24109086.297                    24109090.066
 18  5  3  1 43  0.0000000  0 10G29G26G32G25G16G14G22G31G03G23
 118694389.980 7  92489157.24944  22586787.648                    22586793.125
 106867720.042 8  83273589.01047  20336245.438                    20336254.020
 120207951.738 7  93668586.93345  22874822.727                    22874830.547
 128311120.244 6  99982718.90542  24416800.992                    24416809.410
 113407689.259 7  88369667.07745  21580766.922                    21580771.559
 109627426.221 8  85423971.36846  20861402.250                    20861407.273
 121601184.602 7  94754164.17744  23139936.359                    23139939.258
 109399147.183 8  85246111.48347  20817967.367                    20817971.777
 120272470.014 7  93718850.89545  22887093.078                    22887101.547
 126594480.490 6  98645092.88643  24090132.617                    24090136.449
 18  5  3  1 43 30.0000000  0 10G29G26G32G25G16G14G22G31G03G23
 118705581.316 7  92497877.77244  22588916.766                    22588922.973
 106842408.735 8  83253865.91147  20331428.688                    20331437.383
 120304156.562 7  93743551.70344  22893130.336                    22893137.816
 128418328.597 5 100066257.83042  24437202.266                    24437209.984
 113323612.147 7  88304152.46245  21564767.664                    21564772.406
 109675774.462 8  85461645.30846  20870603.102                    20870608.082
 121648655.434 7  94791154.40944  23148969.750                    23148972.824
 109430287.280 8  85270376.48547  20823893.336                    20823897.750
 120286147.974 7  93729509.01445  22889696.375                    22889705.066
 126494986.325 6  98567564.96043  24071199.922                    24071203.219
 18  5  3  1 44  0.0000000  0 10G29G26G32G25G16G14G22G31G03G23
 118717371.799 7  92507065.15044  22591160.602                    22591166.168
 106817584.879 8  83234522.65547  20326705.273                    20326713.441
 120400630.699 7  93818726.31745  22911488.336                    22911496.293
 128525586.257 5 100149835.17042  24457612.961                    24457621.277
 113239934.412 7  88238949.03945  21548844.148                    21548849.047
 109724580.701 8  85499676.12846  20879890.000                    20879895.504
 121696513.810 7  94828446.61344  23158076.852                    23158080.430
 109461643.262 8  85294809.70347  20829860.055                    20829864.676
 120300376.715 7  93740596.32945  22892404.344                    22892412.582
 126395604.393 6  98490124.55543  24052287.633                    24052290.938
 18  5  3  1 44 30.0000000  0 10G29G26G32G25G16G14G22G31G03G23
 118729761.653 7  92516719.58444  22593517.867                    22593524.141
 106793248.626 8  83215559.35047  20322074.297                    20322082.086
 120497372.703 7  93894109.67745  22929898.492                    22929906.148
 128632891.488 5 100233449.58242  24478032.117                    24478040.668
 113156658.219 7  88174058.51245  21532997.180                    21533002.176
 109773844.851 8  85538063.75746  20889264.914                    20889270.070
 121744758.077 7  94866039.53344  23167257.352                    23167260.629
 109493214.639 8  85319410.76347  20835867.703                    20835872.441
 120315155.427 7  93752112.19245  22895216.789                    22895225.141
 126296337.345 6  98412773.63843  24033398.586                    24033401.016
 18  5  3  1 45  0.0000000  0 10G29G26G32G25G16G14G22G31G03G23
 118742749.450 7  92526839.94044  22595990.344                    22595995.758
 106769398.458 8  83196974.81247  20317535.414                    20317543.754
 120594379.583 7  93969699.41345  22948357.727                    22948365.984
 128740240.902 5 100317098.44442  24498459.820                    24498468.801
 113073783.972 7  88109481.19545  21517227.078                    21517231.645
 109823565.239 8  85576806.90746  20898726.367                    20898731.117
 121793384.393 7  94903930.14744  23176509.875                    23176513.508
 109525000.177 8  85344178.70947  20841916.367                    20841921.035
 120330481.825 7  93764054.82445  22898133.563                    22898141.504
 126197186.278 6  98335513.08043  24014529.492                    24014533.035
 18  5  3  1 45 30.0000000  0 10G29G26G32G25G16G14G22G31G03G23
 118756335.774 7  92537426.67545  22598574.914                    22598581.012
 106746034.952 8  83178769.48747  20313089.586                    20313097.781
 120691650.321 7  94045494.76245  22966868.000                    22966876.098
 128847633.449 5 100400780.86442  24518896.438                    24518905.355
 112991313.493 7  88045218.49645  21501533.102                    21501537.566
 109873742.069 8  85615905.71046  20908274.758                    20908279.844
 121842391.384 6  94942117.38344  23185836.352                    23185840.035
 109557000.468 8  85369113.98747  20848006.000                    20848010.105
 120346355.548 7  93776423.92145  22901154.102                    22901162.191
 126098154.256 6  98258345.31143  23995685.367                    23995687.770
 18  5  3  1 46  0.0000000  0 10G29G26G32G25G16G14G22G31G03G23
 118770520.268 7  92548479.50844  22601274.734                    22601280.238
 106723157.444 8  83160942.86447  20308736.281                    20308744.730
 120789182.780 7  94121494.04745  22985427.445                    22985435.297
 128955066.700 5 100484495.09942  24539339.922                    24539348.523
 112909248.155 7  87981271.49345  21485916.422                    21485921.184
 109924374.593 8  85655359.61146  20917910.125                    20917915.047
 121891776.225 7  94980599.03044  23195233.133                    23195237.188
 109589214.831 8  85394216.07347  20854136.188                    20854140.480
 120362775.051 7  93789218.34145  22904278.000                    22904286.738
 125999242.927 6  98181271.54343  23976862.117                    23976865.340
 18  5  3  1 46 30.0000000  0 10G29G26G32G25G16G14G22G31G03G23
 118785303.288 7  92559998.74145  22604087.414                    22604093.781
 106700766.113 8  83143495.08247  20304475.148                    20304483.520
 120886975.496 7  94197696.11845  23004037.031                    23004045.176
 129062538.986 5 100568239.64342  24559792.000                    24559800.059
 112827590.097 7  87917641.84645  21470377.906                    21470381.852
 109975462.293 8  85695168.19146  20927631.750                    20927637.008
 121941537.114 7  95019373.71144  23204702.945                    23204706.645
 109621643.583 8  85419485.21847  20860307.070                    20860311.582
 120379739.590 7  93802437.43445  22907506.672                    22907515.070
 125900455.398 6  98104294.27643  23958063.289                    23958067.543
 18  5  3  1 47  0.0000000  0 10G29G26G32G25G16G14G22G31G03G23
 118800684.800 7  92571984.31744  22607014.398                    22607020.473
 106678860.924 8  83126426.11147  20300306.922                    20300315.336
 120985027.100 7  94274099.93045  23022696.008                    23022703.766
 129170048.751 5 100652013.45742  24580249.813                    24580258.715
 112746340.946 7  87854330.83745  21454916.242                    21454921.113
 110027005.133 8  85735331.41946  20937439.750                    20937444.773
 121991672.093 7  95058439.89244  23214243.539                    23214247.043
 109654286.761 8  85444921.45047  20866518.773                    20866523.637
 120397248.309 7  93816080.57745  22910838.430                    22910846.438
 125801793.586 6  98027414.97943  23939288.664                    23939293.141
 18  5  3  1 47 30.0000000  0 10G29G26G32G25G16G14G22G31G03G23
 118816664.213 7  92584435.80044  22610055.547                    22610061.496
 106657441.233 8  83109735.44347  20296230.891                    20296238.855
 121083335.349 7  94350703.71745  23041403.281                    23041411.367
 129277593.533 5 100735814.51742  24600715.508                    24600723.605
 112665501.812 7  87791339.32645  21439533.391                    21439537.676
 110079002.207 8  85775848.60046  20947334.422                    20947339.613
 122042178.497 7  95097795.49444  23223854.344                    23223858.246
 109687143.795 8  85470524.31447  20872771.375                    20872775.957
 120415299.559 7  93830146.47145  22914274.078                    22914282.066
 125703259.695 6  97950635.35943  23920538.203                    23920542.453
 18  5  3  1 48  0.0000000  0 10G29G26G32G25G16G14G22G31G03G23
 118833241.632 7  92597353.25444  22613210.055                    22613215.906
 106636507.176 8  83093423.20047  20292247.117                    20292255.676
 121181898.899 7  94427506.44045  23060159.664                    23060167.301
 129385172.037 5 100819641.88742  24621186.125                    24621195.465
 112585074.574 7  87728668.76446  21424228.852                    21424232.961
 110131453.471 8  85816719.69446  20957315.578                    20957320.344
 122093054.209 7  95137438.86444  23233535.602                    23233539.691
 109720215.023 8  85496294.08847  20879064.742                    20879068.945
 120433892.595 7  93844634.51545  22917812.508                    22917820.480
 125604856.642 6  97873957.68743  23901813.547                    23901817.023
 18  5  3  1 48 30.0000000  0 10G29G26G32G25G16G14G22G31G03G23
 118850415.221 7  92610735.25144  22616478.359                    22616483.828
 106616056.773 8  83077487.82547  20288355.531                    20288363.938
 121280714.275 7  94504505.39344  23078963.375                    23078971.250
 129492780.445 5 100903492.55942  24641663.797                    24641672.332
 112505059.049 7  87666319.01345  21409002.078                    21409006.680
 110184356.377 8  85857942.71846  20967383.078                    20967388.125
 122144295.425 7  95177367.04744  23243286.898                    23243290.215
 109753498.206 8  85522229.01447  20885398.438                    20885402.609
 120453024.555 7  93859542.51145  22921452.883                    22921460.867
 125506584.843 6  97797382.27843  23883112.852                    23883116.617
 18  5  3  1 49  0.0000000  0 10G29G26G32G25G16G14G22G31G03G23
 118868186.235 7  92624582.77544  22619859.547                    22619865.918
 106596091.274 8  83061930.29547  20284556.414                    20284564.914
 121379781.240 7  94581700.38645  23097815.344                    23097823.004
 129600418.596 5 100987366.36042  24662147.438                    24662155.895
 112425458.287 7  87604292.46546  21393854.609                    21393859.352
 110237712.056 8  85899518.55346  20977536.148                    20977541.477
 122195901.214 7  95217579.32744  23253107.273                    23253110.383
 109786995.016 8  85548330.41147  20891772.336                    20891777.125
 120472695.705 7  93874870.66545  22925196.086                    22925204.430
 125408448.465 6  97720912.42443  23864437.680                    23864442.113
 18  5  3  1 49 30.0000000  0 10G29G26G32G25G16G14G22G31G03G23
 118886553.806 7  92638895.16244  22623355.188                    22623361.020
 106576609.758 8  83046749.89047  20280848.984                    20280857.367
 121479097.525 7  94659089.65844  23116714.563                    23116722.000
 129708083.961 5 101071261.37142  24682634.234                    24682643.363
 112346273.442 7  87542589.99745  21378786.266                    21378790.707
 110291519.339 8  85941446.27846  20987775.398                    20987780.406
 122247868.866 7  95258073.58344  23262996.289                    23262999.520
 109820704.661 8  85574597.65146  20898187.266                    20898191.762
 120492904.217 7  93890617.51345  22929041.750                    22929049.863
 125310448.984 6  97644549.21143  23845788.469                    23845792.770
 18  5  3  1 50  0.0000000  0 10G29G26G32G25G16G14G22G31G03G23
 118905517.201 7  92653671.80244  22626963.523                    22626969.449
 106557611.310 8  83031945.90347  20277234.039                    20277241.949
 121578660.682 7  94736671.29344  23135660.461                    23135668.570
 129815774.082 5 101155175.71142  24703127.992                    24703135.852
 112267505.345 7  87481212.27445  21363796.766                    21363801.645
 110345776.942 7  85983724.91446  20998100.023                    20998105.477
 122300195.174 7  95298847.28344  23272954.578                    23272957.402
 109854626.423 8  85601030.16547  20904642.086                    20904647.070
 120513648.298 7  93906781.73445  22932988.883                    22932997.090
 125212588.388 6  97568294.23043  23827167.008                    23827170.625
 18  5  3  1 50 30.0000000  0 10G29G26G32G25G16G14G22G31G03G23
 118925076.936 7  92668913.14844  22630686.055                    22630691.777
 106539096.612 8  83017518.86847  20273710.375                    20273718.563
 121678469.901 7  94814444.66644  23154653.578                    23154662.113
 129923488.114 5 101239108.65842  24723625.516                    24723633.543
 112189156.210 7  87420161.01145  21348887.680                    21348892.270
 110400485.180 7  86026354.67446  21008510.758                    21008515.719
 122352879.113 7  95339899.67544  23282979.906                    23282982.434
 109888761.303 8  85627628.75046  20911138.133                    20911142.590
 120534927.518 7  93923362.90445  22937038.523                    22937046.961
 125114869.887 6  97492149.98243  23808571.867                    23808575.656
 18  5  3  1 51  0.0000000  0 10G29G26G32G25G16G14G22G31G03G23
 118945231.538 7  92684618.01044  22634520.719                    22634527.070
 106521064.140 8  83003467.58747  20270278.938                    20270287.301
 121778522.250 7  94892407.49444  23173693.414                    23173701.289
 130031223.133 5 101323057.94642  24744125.906                    24744135.617
 112111226.396 7  87359436.49246  21334057.852                    21334062.281
 110455642.478 7  86069334.36246  21019006.898                    21019011.922
 122405917.111 6  95381227.95744  23293072.344                    23293075.305
 109923107.743 8  85654392.18647  20917673.805                    20917678.711
 120556739.480 7  93940359.21645  22941189.320                    22941197.184
 125017294.986 6  97416117.61143  23790003.586                    23790007.801
 18  5  3  1 51 30.0000000  0 10G29G26G32G25G16G14G22G31G03G23
 118965980.489 7  92700786.00044  22638469.281                    22638475.457
 106503513.583 8  82989791.83347  20266939.297                    20266947.617
 121878816.065 7  94970558.47444  23192777.852                    23192786.418
 130138977.278 5 101407022.20242  24764631.148                    24764640.855
 112033717.425 7  87299039.90045  21319308.234                    21319313.164
 110511248.141 8  86112663.42546  21029588.773                    21029593.629
 122459306.768 7  95422830.25244  23303232.305                    23303235.262
 109957665.820 8  85681320.53646  20924250.148                    20924254.945
 120579082.913 7  93957769.65844  22945441.078                    22945448.957
 124919865.522 6  97340198.57843  23771463.422                    23771467.609
 18  5  3  1 52  0.0000000  0 10G29G26G32G25G16G14G22G31G03G23
 118987324.659 7  92717417.81845  22642531.086                    22642537.578
 106486445.631 8  82976492.12547  20263691.305                    20263699.836
 121979350.503 7  95048896.96244  23211909.828                    23211917.477
 130246749.911 5 101491000.79042  24785139.195                    24785149.398
 111956631.729 7  87238973.12246  21304639.695                    21304644.016
 110567302.403 8  86156342.04646  21040255.070                    21040260.215
 122513046.764 7  95464705.52444  23313458.539                    23313461.785
 109992436.313 8  85708414.41347  20930866.734                    20930871.285
 120601957.485 7  93975593.97845  22949793.531                    22949801.914
 124822585.367 6  97264395.88843  23752952.039                    23752955.359
 18  5  3  1 52 30.0000000  0 10G29G26G32G25G16G14G22G31G03G23
 119009262.610 7  92734512.29744  22646705.625                    22646712.184
 106469858.864 8  82963567.37547  20260535.297                    20260542.777
 122080122.819 6  95127420.78544  23231086.266                    23231093.918
 130354538.136 5 101574991.62042  24805651.203                    24805659.988
 111879969.985 8  87179236.70645  21290051.820                    21290056.105
 110623803.675 8  86200368.97746  21051007.477                    21051012.168
 122567133.571 7  95506851.06244  23323750.695                    23323753.703
 110027418.446 8  85735673.19746  20937523.656                    20937528.375
 120625360.857 7  93993830.35444  22954247.000                    22954255.156
 124725455.888 6  97188710.62243  23734468.945                    23734472.207
 18  5  3  1 53  0.0000000  0 10G29G26G32G25G16G14G22G31G03G23
 119031793.693 7  92752068.96044  22650992.953                    22650999.188
 106453752.888 8  82951017.26347  20257470.219                    20257478.520
 122181131.197 7  95206128.56944  23250307.281                    23250314.938
 130462340.235 5 101658993.21042  24826165.352                    24826173.703
 111803733.286 7  87119831.49046  21275544.141                    21275548.742
 110680751.524 8  86244743.89146  21061843.852                    21061849.301
 122621565.322 6  95549265.35344  23334108.508                    23334112.473
 110062611.969 8  85763096.70447  20944220.570                    20944225.227
 120649291.646 7  94012477.69545  22958801.047                    22958809.242
 124628479.670 6  97113144.76544  23716015.422                    23716018.305
 18  5  3  1 53 30.0000000  0 10G29G26G32G25G16G14G22G31G03G23
 119054917.733 7  92770087.66644  22655393.758                    22655399.941
 106438127.410 8  82938841.56247  20254496.680                    20254504.988
 122282373.926 7  95285018.96344  23269573.188                    23269581.195
 130570154.525 5 101743004.24142  24846681.625                    24846690.195
 111727923.284 8  87060758.77545  21261118.008                    21261122.164
 110738145.045 7  86289466.08946  21072765.711                    21072770.707
 122676339.111 7  95591946.20944  23344532.336                    23344535.145
 110098016.661 8  85790684.74746  20950958.141                    20950962.750
 120673748.477 7  94031534.95145  22963455.203                    22963463.125
 124531659.099 7  97037700.16444  23697590.578                    23697594.391
 18  5  3  1 54  0.0000000  0 10G29G26G32G25G16G14G22G31G03G23
 119078633.707 7  92788567.63845  22659906.797                    22659912.957
 106422981.410 8  82927039.48647  20251614.688                    20251622.586
 122383848.605 7  95364090.08244  23288883.414                    23288891.094
 130677978.740 5 101827023.04342  24867199.383                    24867208.656
 111652540.735 7  87002019.12346  21246772.953                    21246778.012
 110795983.042 8  86334534.63546  21083771.484                    21083776.723
 122731452.523 6  95634891.68144  23355019.641                    23355022.539
 110133631.923 8  85818436.88247  20957735.648                    20957740.180
 120698729.442 7  94051000.61145  22968208.398                    22968216.621
 124434996.108 7  96962378.40944  23679195.875                    23679199.715
 18  5  3  1 54 30.0000000  0 10G29G26G32G25G16G14G22G31G03G23
 119102941.637 7  92807508.85544  22664532.602                    22664538.473
 106408314.956 8  82915611.07947  20248823.961                    20248831.895
 122485553.958 6  95443340.96544  23308236.711                    23308244.980
 130785811.58014                  24887719.523
 111577587.494 8  86943614.01346  21232509.875                    21232514.910
 110854265.381 7  86379949.41046  21094862.578                    21094867.469
 122786903.430 6  95678100.15644  23365571.086                    23365574.824
 110169458.257 8  85846353.49547  20964553.102                    20964557.453
 120724233.576 7  94070873.94245  22973063.016                    22973070.066
 124338493.606 7  96887181.64844  23660832.258                    23660835.559
 18  5  3  1 55  0.0000000  0 10G29G26G32G25G16G14G22G31G03G23
 119127840.094 7  92826910.23544  22669270.563                    22669276.551
 106394126.695 8  82904555.29647  20246123.922                    20246131.555
 122587487.287 7  95522769.48944  23327633.906                    23327642.742
 130893650.49515                  24908242.055
 111503063.963 8  86885543.74446  21218328.484                    21218333.430
 110912990.282 7  86425709.04746  21106037.547                    21106042.949
 122842688.541 6  95721569.04044  23376187.148                    23376190.895
 110205494.802 8  85874433.90147  20971410.797                    20971415.527
 120750258.475 7  94091153.06745  22978014.461                    22978022.469
 124242153.032 7  96812111.11144  23642499.281                    23642502.875
 18  5  3  1 55 30.0000000  0 10G29G26G32G25G16G14G22G31G03G23
 119153328.500 7  92846771.31445  22674120.906                    22674126.719
 106380416.231 8  82893871.82447  20243514.781                    20243523.031
 122689646.804 7  95602374.25944  23347074.781                    23347083.012
 131001493.67515 102079112.52952  24928762.578                    24928772.719
 111428971.887 8  86827809.66646  21204229.469                    21204234.363
 110972156.949 7  86471812.91346  21117296.781                    21117301.488
 122898805.598 6  95765296.58344  23386865.609                    23386869.047
 110241741.285 8  85902677.89646  20978307.867                    20978312.848
 120776802.776 7  94111836.92644  22983065.977                    22983073.719
 124145976.902 7  96737168.67344  23624197.391                    23624201.086
 18  5  3  1 56  0.0000000  0 10G29G26G32G25G16G14G22G31G03G23
 119179406.927 7  92867092.15344  22679083.297                    22679089.590
 106367183.711 8  82883560.76747  20240996.500                    20241004.688
 122792031.330 7  95682154.35344  23366557.836                    23366566.215
 131109334.86015                  24949285.836
 111355312.957 7  86770413.10646  21190212.422                    21190217.395
 111031765.454 7  86518261.07546  21128639.695                    21128644.680
 122955252.608 6  95809281.22544  23397607.219                    23397610.656
 110278198.507 8  85931086.10847  20985245.539                    20985250.020
 120803865.545 7  94132924.78544  22988216.023                    22988223.781
 124049968.310 7  96662356.80844  23605927.805                    23605931.367
 18  5  3  1 56 30.0000000  0 10G29G26G32G25G16G14G22G31G03G23
 119206073.841 7  92887871.55944  22684157.352                    22684164.215
 106354427.891 9  82873621.17147  20238569.219                    20238577.629
 122894638.233 7  95762107.72944  23386083.180                    23386091.527
 131217181.24615                  24969807.875
 111282087.572 8  86713354.37646  21176278.133                    21176283.047
 111091814.292 8  86565052.34246  21140066.766                    21140071.820
 123012026.430 6  95853520.51144  23408411.063                    23408414.645
 110314865.584 8  85959657.84246  20992223.148                    20992227.703
 120831444.538 7  94154414.87344  22993464.172                    22993471.648
 123954129.119 7  96587676.94844  23587690.023                    23587693.598
 18  5  3  1 57  0.0000000  0 10G29G26G32G25G16G14G22G31G03G23
 119233329.819 7  92909109.96444  22689344.383                    22689350.477
 106342149.097 8  82864053.29047  20236232.789                    20236240.816
 122997466.578 7  95842233.66644  23405650.688                    23405659.270
 131325002.27015 102331260.76852  24990330.039                    24990339.363
 111209297.969 7  86656635.21746  21162426.641                    21162431.898
 111152303.306 7  86612186.61446  21151577.586                    21151582.445
 123069125.439 6  95898013.22844  23419276.156                    23419279.828
 110351742.967 8  85988393.44247  20999240.625                    20999245.191
 120859539.044 7  94176306.67445  22998810.430                    22998818.570
 123858462.749 7  96513131.75044  23569485.125                    23569488.789
 18  5  3  1 57 30.0000000  0 10G29G26G32G25G16G14G22G31G03G23
 119261171.654 7  92930804.89944  22694642.656                    22694649.023
 106330344.624 8  82854855.00147  20233986.438                    20233994.699
 123100512.323 7  95922529.00144  23425259.789                    23425268.102
 131432846.87515                  25010853.820
 111136943.830 8  86600255.37946  21148657.945                    21148662.945
 111213229.348 7  86659661.43046  21163171.016                    21163176.418
 123126544.828 6  95942755.57244  23430202.773                    23430206.992
 110388828.577 8  86017291.30046  21006298.000                    21006302.813
 120888145.315 7  94198597.25245  23004253.883                    23004261.777
 123762969.440 7  96438721.39544  23551313.836                    23551316.602
 18  5  3  1 58  0.0000000  0 10G29G26G32G25G16G14G22G31G03G23
 119289599.666 7  92952956.57344  22700052.656                    22700058.270
 106319014.784 8  82846026.55747  20231830.102                    20231838.801
 123203774.509 7  96002992.98244  23444909.828                    23444918.285
 131540700.45615                  25031376.617
 111065026.419 7  86544215.84746  21134972.734                    21134977.535
 111274592.838 7  86707477.10746  21174848.242                    21174853.215
 123184283.397 6  95987746.62944  23441190.898                    23441194.801
 110426123.567 8  86046352.32347  21013394.938                    21013399.813
 120917262.586 7  94221286.02445  23009794.695                    23009802.586
 123667652.357 7  96364448.38744  23533175.219                    23533178.934
 18  5  3  1 58 30.0000000  0 10G29G26G32G25G16G14G22G31G03G23
 119318614.872 7  92975565.82544  22705574.063                    22705579.797
 106308160.723 8  82837568.84847  20229764.883                    20229773.152
 123307252.901 7  96083625.42544  23464601.672                    23464610.016
 131648535.02315                  25051893.930
 110993549.255 8  86488519.37146  21121370.734                    21121375.711
 111336394.631 7  86755634.32746  21186608.586                    21186614.090
 123242340.431 6  96032985.83644  23452238.891                    23452242.676
 110463629.750 8  86075577.90047  21020532.070                    21020537.023
 120946890.986 7  94244373.05645  23015432.930                    23015441.125
 123572515.757 7  96290315.97444  23515071.648                    23515074.887
 18  5  3  1 59  0.0000000  0 10G29G26G32G25G16G14G22G31G03G23
 119348214.303 7  92998630.29744  22711205.906                    22711212.355
 106297779.595 8  82829479.66247  20227789.578                    20227797.676
 123410943.392 7  96164423.15644  23484333.148                    23484341.648
 131756360.97715                  25072413.367
 110922510.973 8  86433164.87846  21107853.203                    21107857.570
 111398631.355 7  86804130.44546  21198451.766                    21198456.895
 123300710.759 6  96078469.15644  23463345.867                    23463350.207
 110501344.042 8  86104965.64247  21027708.641                    21027713.699
 120977026.544 7  94267855.28445  23021167.328                    23021175.793
 123477560.074 7  96216324.54244  23497002.156                    23497005.066
 18  5  3  1 59 30.0000000  0 10G29G26G32G25G16G14G22G31G03G23
 119378397.156 7  93022149.40044  22716950.078                    22716955.688
 106287870.939 8  82821758.63147  20225903.570                    20225912.063
 123514844.275 7  96245384.82244  23504104.445                    23504113.129
 131864176.58615 102751383.57852  25092930.578                    25092938.875
 110851913.062 8  86378153.53746  21094418.609                    21094423.215
 111461302.205 8  86852964.85046  21210378.086                    21210383.473
 123359392.038 6  96124194.78044  23474512.398                    23474516.156
 110539266.719 8  86134515.76147  21034925.672                    21034930.020
 121007667.798 7  94291731.55445  23026998.211                    23027006.340
 123382787.782 7  96142476.01244  23478966.992                    23478970.641
 18  5  3  2  0  0.0000000  0 10G29G26G32G25G16G14G22G31G03G23
 119409163.667 7  93046123.29744  22722804.039                    22722810.699
 106278435.048 8  82814405.99047  20224108.086                    20224116.363
 123618954.518 7  96326509.61444  23523916.484                    23523925.016
 131971981.91414 102835387.66252  25113444.008                    25113453.918
 110781757.772 8  86323487.08846  21081068.531                    21081073.230
 111524407.270 8  86902137.60246  21222386.320                    21222391.563
 123418382.862 6  96170161.64044  23485738.547                    23485742.410
 110577398.539 8  86164228.85047  21042181.617                    21042186.090
 121038813.932 7  94316001.25045  23032925.383                    23032933.930
 123288202.188 7  96068772.99244  23460968.305                    23460971.320
 18  5  3  2  0 30.0000000  0 10G29G26G32G25G16G14G22G31G03G23
 119440511.917 7  93070550.50944  22728769.781                    22728775.582
 106269470.130 8  82807420.34347  20222402.578                    20222410.359
 123723271.141 7  96407795.23944  23543767.172                    23543775.352
 132079773.86615 102919381.25852  25133957.281                    25133965.664
 110712044.919 7  86269165.40146  21067802.461                    21067807.270
 111587944.431 8  86951647.04246  21234477.328                    21234482.465
 123477679.610 6  96216366.84644  23497022.695                    23497026.383
 110615738.364 8  86194104.02147  21049477.344                    21049482.141
 121070462.121 7  94340662.15145  23038947.523                    23038956.219
 123193804.964 6  95995216.72144  23443004.820                    23443008.348
 18  5  3  2  1  0.0000000  0 11G29G26G32G25G27G16G14G22G31G03G23
 119472442.184 7  93095431.23044  22734845.594                    22734852.309
 106260976.766 8  82800802.13947  20220786.148                    20220794.590
 123827793.422 7  96489241.10644  23563657.523                    23563665.750
 132187551.870 5 103003364.13142  25154464.742                    25154475.234
 131256107.06215 102277527.06452  24977207.281                    24977216.313
 110642777.118 8  86215190.50346  21054621.250                    21054625.895
 111651913.807 8  87001493.28546  21246650.367                    21246655.090
 123537280.791 6  96262809.26944  23508363.953                    23508367.934
 110654287.362 8  86224142.18247  21056813.344                    21056817.961
 121102611.811 7  94365713.84445  23045065.352                    23045074.113
 123099599.607 7  95921809.97844  23425078.117                    23425081.156
 18  5  3  2  1 30.0000000  0 11G29G26G32G25G27G16G14G22G31G03G23
 119504952.386 7  93120763.83544  22741032.211                    22741038.484
 106252953.186 8  82794549.99847  20219259.063                    20219267.398
 123932518.338 6  96570844.88044  23583585.594                    23583593.980
 132295313.315 5 103087334.06842  25174971.773                    25174981.691
 131140406.50915 102187370.90553  24955189.672                    24955199.375
 110573954.015 8  86161562.11946  21041524.781                    21041529.363
 111716313.580 7  87051674.89546  21258905.336                    21258910.406
 123597183.021 6  96309486.28944  23519762.789                    23519767.051
 110693044.412 8  86254342.46147  21064188.344                    21064193.164
 121135260.111 7  94391154.06144  23051278.320                    23051286.371
 123005587.707 7  95848553.98644  23407188.555                    23407192.113
 18  5  3  2  2  0.0000000  0 11G29G26G32G25G27G16G14G22G31G03G23
 119538042.045 7  93146547.97344  22747329.773                    22747335.137
 106245399.064 8  82788663.67847  20217821.680                    20217830.023
 124037444.385 6  96652605.37844  23603552.664                    23603561.094
 132403056.932 5 103171290.03542  25195476.141                    25195484.805
 131024624.737 5 102097151.45142  24933156.461                    24933166.672
 110505577.311 8  86108281.58546  21028513.234                    21028517.492
 111781143.302 7  87102191.53246  21271241.883                    21271247.117
 123657383.964 6  96356396.10044  23531218.586                    23531222.922
 110732010.126 8  86284705.34547  21071603.227                    21071607.793
 121168405.630 7  94416981.71344  23057585.211                    23057593.977
 122911771.782 7  95775450.67944  23389335.914                    23389339.297
 18  5  3  2  2 30.0000000  0 11G29G26G32G25G27G16G14G22G31G03G23
 119571709.823 7  93172782.59744  22753735.719                    22753741.605
 106238313.311 8  82783142.30947  20216473.313                    20216481.652
 124142569.101 7  96734520.68844  23623557.734                    23623565.426
 132510780.710 5 103255230.54842  25215975.688                    25215983.438
 130908763.951 5 102006870.44542  24911109.398                    24911119.191
 110437647.795 8  86055349.49346  21015586.477                    21015591.273
 111846401.164 7  87153041.78846  21283660.359                    21283665.621
 123717880.572 6  96403536.27344  23542730.859                    23542734.977
 110771183.753 8  86315230.22747  21079057.797                    21079062.367
 121202046.162 7  94443195.08945  23063987.320                    23063995.609
 122818153.850 7  95702501.66044  23371520.844                    23371524.230
 18  5  3  2  3  0.0000000  0 11G29G26G32G25G27G16G14G22G31G03G23
 119605954.965 7  93199467.12244  22760252.766                    22760258.645
 106231695.309 8  82777985.42747  20215213.961                    20215222.488
 124247890.799 7  96816589.47744  23643598.781                    23643607.457
 132618483.259 5 103339154.61942  25236470.180                    25236478.078
 130792827.255 5 101916530.22542  24889046.352                    24889057.473
 110370166.629 7  86002766.77846  21002745.203                    21002749.594
 111912086.180 7  87204224.88446  21296159.438                    21296164.891
 123778670.172 6  96450904.74244  23554299.297                    23554302.527
 110810565.283 8  86345917.11447  21086551.750                    21086556.563
 121236180.008 7  94469792.85945  23070482.625                    23070490.898
 122724736.870 6  95629709.23044  23353744.078                    23353747.668
 18  5  3  2  3 30.0000000  0 11G29G26G32G25G27G16G14G22G31G03G23
 119640776.551 7  93226600.80644  22766879.422                    22766885.605
 106225544.464 8  82773192.56647  20214043.648                    20214051.652
 124353407.633 6  96898810.31244  23663678.602                    23663686.594
 132726163.062 5 103423060.85342  25256960.844                    25256969.574
 130676817.151 5 101826132.76743  24866970.477                    24866980.688
 110303134.979 7  85950534.33046  20989989.484                    20989994.227
 111978197.636 7  87255740.27446  21308740.016                    21308745.199
 123839750.683 6  96498499.90544  23565922.977                    23565925.727
 110850154.743 8  86376766.02647  21094085.453                    21094090.395
 121270805.391 7  94496773.64345  23077071.250                    23077079.895
 122631523.306 6  95557075.30544  23336005.883                    23336009.535
 18  5  3  2  4  0.0000000  0 11G29G26G32G25G27G16G14G22G31G03G23
 119676173.066 7  93254182.49944  22773614.672                    22773620.461
 106219859.362 8  82768762.62247  20212961.992                    20212969.887
 124459116.990 6  96981181.16844  23683794.625                    23683802.727
 132833817.954 5 103506947.71142  25277447.242                    25277456.164
 130560735.901 5 101735679.82043  24844881.898                    24844891.992
 110236553.320 7  85898652.52946  20977319.359                    20977324.047
 112044733.884 8  87307586.67046  21321401.234                    21321406.660
 123901118.762 6  96546319.14044  23577600.219                    23577604.320
 110889951.344 8  86407776.34947  21101658.414                    21101663.074
 121305919.870 7  94524135.56045  23083754.039                    23083761.973
 122538515.441 7  95484601.67544  23318307.711                    23318310.574
 18  5  3  2  4 30.0000000  0 11G29G26G32G25G27G16G14G22G31G03G23
 119712143.757 7  93282211.59044  22780460.023                    22780466.148
 106214639.832 8  82764695.45747  20211968.680                    20211977.000
 124565017.497 6  97063700.97144  23703946.594                    23703955.184
 132941446.879 5 103590814.39142  25297928.992                    25297937.063
 130444586.810 5 101645174.06742  24822778.250                    24822788.742
 110170423.056 7  85847122.45246  20964735.078                    20964739.961
 112111694.422 7  87359763.68946  21334143.688                    21334149.230
 123962772.170 6  96594360.69944  23589332.203                    23589336.457
 110929955.615 8  86438948.49147  21109271.063                    21109275.516
 121341522.066 7  94551877.50445  23090528.211                    23090536.996
 122445715.962 6  95412290.39844  23300647.992                    23300651.012
 18  5  3  2  5  0.0000000  0 11G29G26G32G25G27G16G14G22G31G03G23
 119748687.594 7  93310687.29344  22787413.914                    22787420.277
 106209885.052 8  82760990.43747  20211063.758                    20211071.918
 124671107.121 6  97146368.13744  23724135.242                    23724143.004
 133049048.256 5 103674659.57442  25318404.625                    25318412.488
 130328372.513 5 101554617.43042  24800664.016                    24800674.266
 110104745.167 7  85795944.88446  20952237.445                    20952241.738
 112179077.933 7  87412270.28346  21346966.273                    21346971.699
 124024708.502 6  96642622.74744  23601118.398                    23601122.520
 110970167.530 8  86470282.43247  21116923.156                    21116927.926
 121377610.034 7  94579997.96145  23097396.461                    23097403.938
 122353127.439 7  95340143.53044  23283029.617                    23283033.090
 18  5  3  2  5 30.0000000  0 11G29G26G32G25G27G16G14G22G31G03G23
 119785802.361 7  93339607.87344  22794476.430                    22794482.699
 106205593.218 8  82757646.15447  20210247.063                    20210255.086
 124777382.901 6  97229180.35744  23744358.508                    23744366.785
 133156619.654 5 103758481.35442  25338873.859                    25338882.855
 130212094.876 5 101464011.53742  24778537.578                    24778547.117
 110039519.966 8  85745120.05546  20939825.227                    20939830.027
 112246882.248 7  87465104.78046  21359869.031                    21359874.344
 124086924.101 6  96691102.38144  23612957.867                    23612962.027
 111010585.905 8  86501777.25047  21124614.742                    21124619.340
 121414180.855 7  94608494.68544  23104355.453                    23104363.332
 122260751.434 7  95268162.24544  23265450.398                    23265454.055
 18  5  3  2  6  0.0000000  0 11G29G26G32G25G27G16G14G22G31G03G23
 119823488.124 7  93368973.39244  22801647.695                    22801654.121
 106201764.400 8  82754662.66447  20209518.258                    20209526.691
 124883843.792 6  97312136.80744  23764617.609                    23764625.828
 133264160.369 5 103842279.22242  25359338.578                    25359348.141
 130095757.377 5 101373358.90142  24756398.703                    24756408.418
 109974749.093 7  85694649.24546  20927499.688                    20927504.309
 112315107.261 7  87518267.09546  21372851.867                    21372856.824
 124149417.050 6  96739798.15544  23624850.023                    23624853.457
 111051211.741 8  86533433.73547  21132345.367                    21132350.074
 121451233.502 7  94637366.84744  23111406.078                    23111413.891
 122168591.430 6  95196349.27144  23247912.688                    23247916.035
 18  5  3  2  6 30.0000000  0 11G29G26G32G25G27G16G14G22G31G03G23
 119861743.778 7  93398782.98744  22808927.539                    22808934.148
 106198398.002 8  82752039.50147  20208877.977                    20208886.180
 124990487.981 6  97395236.10244  23784910.977                    23784919.969
 133371669.079 5 103926052.22042  25379796.781                    25379805.773
 129979363.055 5 101282662.05543  24734250.102                    24734259.402
 109910433.856 7  85644533.47346  20915260.938                    20915265.559
 112383752.121 7  87571756.56046  21385914.609                    21385920.051
 124212185.210 6  96788708.34844  23636794.719                    23636797.648
 111092045.025 8  86565251.85747  21140115.727                    21140120.496
 121488766.144 7  94666613.04144  23118548.430                    23118555.855
 122076649.979 7  95124706.58344  23230417.016                    23230420.371
 18  5  3  2  7  0.0000000  0 10G29G26G32G27G16G14G22G31G03G23
 119900567.873 7  93429035.50144  22816316.047                    22816321.563
 106195492.913 8  82749775.80347  20208325.008                    20208333.297
 125097313.249 7  97478476.49344  23805239.703                    23805247.777
 129862914.419 5 101191922.91942  24712090.977                    24712100.160
 109846574.672 7  85594773.06846  20903108.820                    20903113.746
 112452815.283 7  87625571.98246  21399056.813                    21399062.305
 124275225.607 6  96837830.67644  23648790.883                    23648793.789
 111133085.415 8  86597231.36947  21147925.297                    21147930.535
 121526776.567 7  94696231.51044  23125781.703                    23125789.270
 121984929.310 7  95053235.95044  23212963.023                    23212966.410
 18  5  3  2  7 30.0000000  0 10G29G26G32G27G16G14G22G31G03G23
 119939957.481 7  93459728.68845  22823810.750                    22823817.457
 106193046.461 8  82747869.47747  20207859.453                    20207867.730
 125204315.780 6  97561855.02444  23825601.227                    23825609.867
 129746412.404 5 101101142.10742  24689920.367                    24689930.617
 109783170.731 7  85545367.41346  20891043.719                    20891048.102
 112522293.764 8  87679711.02546  21412278.430                    21412283.477
 124338533.710 6  96887161.63844  23660838.484                    23660841.074
 111174331.266 8  86629370.97647  21155774.445                    21155778.828
 121565260.889 7  94726219.27244  23133105.063                    23133112.246
 121893430.248 7  94981938.00844  23195551.328                    23195554.605
 18  5  3  2  8  0.0000000  0 10G29G26G32G27G16G14G22G31G03G23
 119979913.905 7  93490863.55344  22831414.844                    22831420.918
 106191060.181 8  82746321.73447  20207481.344                    20207489.656
 125311495.938 7  97645371.95944  23845998.102                    23846005.535
 129629862.153 5 101010323.81943  24667742.258                    24667751.418
 109720225.361 7  85496319.08346  20879065.477                    20879069.855
 112592188.877 7  87734174.72846  21425578.781                    21425584.508
 124402108.977 6  96936700.75444  23672936.102                    23672939.477
 111215784.411 8  86661672.11347  21163662.742                    21163667.527
 121604219.526 7  94756576.61845  23140518.352                    23140526.738
 121802157.718 7  94910816.57044  23178183.047                    23178186.191
 18  5  3  2  8 30.0000000  0 10G29G26G32G27G16G14G22G31G03G23
 120020433.192 7  93522437.00944  22839125.945                    22839131.699
 106189530.724 8  82745129.95247  20207190.469                    20207198.871
 125418849.325 7  97729023.86144  23866426.211                    23866434.539
 129513263.958 5 100919468.18643  24645554.594                    24645563.508
 109657737.220 7  85447627.03546  20867174.008                    20867178.801
 112662496.523 7  87788959.87546  21438958.117                    21438963.289
 124465946.652 6  96986444.35544  23685084.523                    23685087.414
 111257442.716 8  86694133.12047  21171590.047                    21171594.578
 121643647.919 7  94787300.00544  23148021.703                    23148029.617
 121711111.754 7  94839871.70544  23160857.406                    23160860.996
 18  5  3  2  9  0.0000000  0 10G29G26G32G27G16G14G22G31G03G23
 120061516.436 7  93554449.89244  22846943.367                    22846949.555
 106188459.556 8  82744295.27547  20206986.234                    20206994.566
 125526376.234 7  97812810.99344  23886888.039                    23886896.738
 129396622.943 5 100828579.14643  24623358.313                    24623367.430
 109595709.182 7  85399293.50846  20855370.844                    20855375.609
 112733218.271 7  87844067.69646  21452415.961                    21452421.121
 124530046.317 6  97036392.08044  23697281.430                    23697285.164
 111299308.324 8  86726755.65446  21179556.648                    21179561.426
 121683546.431 7  94818389.72144  23155614.234                    23155622.547
 121620297.354 7  94769107.24144  23143575.867                    23143579.813
 18  5  3  2  9 30.0000000  0 10G29G26G32G27G16G14G22G31G03G23
 120103160.109 7  93586899.49445  22854868.148                    22854873.996
 106187843.233 8  82743815.02447  20206869.047                    20206877.359
 125634072.097 6  97896729.76044  23907381.250                    23907390.066
 129279939.389 5 100737656.97742  24601153.695                    24601163.387
 109534139.791 8  85351317.37146  20843654.883                    20843659.051
 112804350.294 7  87899495.21346  21465952.344                    21465957.344
 124594402.718 6  97086539.90644  23709528.797                    23709531.820
 111341378.699 8  86759537.75046  21187562.602                    21187567.207
 121723910.341 7  94849842.09645  23163294.813                    23163303.293
 121529714.510 7  94698523.23944  23126338.773                    23126342.457
 18  5  3  2 10  0.0000000  0 10G29G26G32G27G16G14G22G31G03G23
 120145366.324 7  93619787.45244  22862899.922                    22862905.500
 106187684.477 8  82743691.32247  20206839.094                    20206847.477
 125741938.604 7  97980781.49744  23927908.531                    23927916.414
 129163219.66115 100646706.64553  24578942.594                    24578952.406
 109473033.249 7  85303701.89146  20832026.156                    20832030.859
 112875894.710 8  87955244.08646  21479566.430                    21479571.941
 124659016.790 6  97136888.48244  23721823.758                    23721827.707
 111383657.338 8  86792482.13047  21195607.945                    21195612.531
 121764741.229 7  94881658.34844  23171064.648                    23171072.941
 121439369.179 7  94628124.29244  23109146.586                    23109150.184
 18  5  3  2 10 30.0000000  0 10G29G26G32G27G16G14G22G31G03G23
 120188130.385 7  93653110.07044  22871037.266                    22871043.063
 106187978.913 8  82743920.75247  20206894.688                    20206902.949
 125849970.259 7  98064961.94244  23948465.484                    23948474.258
 129046463.14315 100555727.66752  24556723.734                    24556733.750
 109412387.222 7  85256445.25646  20820485.695                    20820490.211
 112947847.339 8  88011311.04246  21493258.523                    21493264.086
 124723882.301 6  97187432.99744  23734167.352                    23734170.699
 111426141.077 8  86825586.32846  21203692.047                    21203697.051
 121806033.545 7  94913834.13644  23178922.430                    23178930.805
 121349260.716 7  94557909.91644  23091999.070                    23092002.609
 18  5  3  2 11  0.0000000  0 10G29G26G32G27G16G14G22G31G03G23
 120231450.704 7  93686866.14144  22879280.875                    22879287.309
 106188725.410 8  82744502.43847  20207037.289                    20207045.371
 125958164.864 6  98149269.33644  23969054.656                    23969062.945
 128929672.52515 100464722.10653  24534500.180                    24534509.547
 109352202.557 7  85209548.12946  20809032.867                    20809037.824
 113020206.184 8  88067694.52646  21507028.367                    21507033.445
 124788996.559 6  97238171.34043  23746558.563                    23746561.957
 111468829.348 8  86858849.89546  21211815.563                    21211820.582
 121847784.922 7  94946367.64645  23186867.313                    23186875.797
 121259391.287 7  94487881.81444  23074898.109                    23074901.277
 18  5  3  2 11 30.0000000  0 10G29G26G32G27G16G14G22G31G03G23
 120275328.412 7  93721056.55144  22887630.523                    22887636.547
 106189925.466 8  82745437.54647  20207265.414                    20207273.766
 126066522.816 6  98233704.01143  23989674.852                    23989683.152
 128812852.94715 100373694.02252  24512269.680                    24512279.023
 109292481.994 8  85163012.63446  20797668.672                    20797673.293
 113092972.635 7  88124395.63546  21520875.039                    21520881.000
 124854359.292 6  97289103.28644  23758996.164                    23759000.391
 111511724.272 8  86892274.50146  21219978.273                    21219982.695
 121889995.615 7  94979259.06945  23194899.844                    23194908.594
 121169766.006 7  94418043.94544  23057843.188                    23057846.395
 18  5  3  2 12  0.0000000  0 10G29G26G32G27G16G14G22G31G03G23
 120319761.383 7  93755679.62544  22896085.781                    22896091.977
 106191577.216 8  82746724.62447  20207579.938                    20207587.766
 126175041.218 7  98318263.72643  24010324.859                    24010333.453
 128696005.26015 100282643.82153  24490033.359                    24490043.785
 109233225.880 7  85116839.04946  20786392.594                    20786397.559
 113166144.553 7  88181412.68146  21534798.930                    21534804.547
 124919966.583 6  97340225.81943  23771481.195                    23771484.809
 111554825.879 8  86925860.15046  21228180.117                    21228185.020
 121932662.688 7  95012506.09945  23203019.414                    23203027.484
 121080386.647 7  94348397.71744  23040834.008                    23040837.688
 18  5  3  2 12 30.0000000  0 10G29G26G32G27G16G14G22G31G03G23
 120364747.322 7  93790733.58245  22904645.883                    22904652.406
 106193679.015 8  82748362.39047  20207979.734                    20207987.516
 126283717.381 6  98402946.36143  24031005.453                    24031014.121
 128579133.84715 100191575.29052  24467793.539                    24467804.641
 109174433.987 7  85071027.20246  20775204.953                    20775209.305
 113239719.634 7  88238743.88546  21548800.047                    21548805.297
 124985815.237 6  97391536.41244  23784011.211                    23784015.898
 111598132.514 8  86959605.56546  21236421.133                    21236425.945
 121975783.174 7  95046106.45445  23211224.820                    23211233.492
 120991255.012 7  94278944.49844  23023873.008                    23023876.648
 18  5  3  2 13  0.0000000  0 10G29G26G32G27G16G14G22G31G03G23
 120410284.554 7  93826217.12444  22913311.641                    22913318.418
 106196229.851 8  82750350.04947  20208465.242                    20208473.293
 126392549.229 6  98487750.32443  24051715.563                    24051724.125
 128462240.25715 100100489.52053  24445550.844                    24445559.219
 109116107.121 7  85025577.70446  20764105.648                    20764110.422
 113313696.778 7  88296388.38646  21562877.164                    21562882.570
 125051902.710 6  97443033.09444  23796587.852                    23796592.137
 111641644.419 8  86993510.92846  21244701.250                    21244706.059
 122019354.880 7  95080058.40145  23219516.328                    23219524.914
 120902373.764 7  94209686.40844  23006959.992                    23006962.988
 18  5  3  2 13 30.0000000  0 10G29G26G32G27G16G14G22G31G03G23
 120456371.847 7  93862129.28344  22922081.852                    22922088.121
 106199228.511 8  82752686.66347  20209036.031                    20209044.090
 126501534.495 6  98572673.82843  24072453.938                    24072463.461
 128345327.22415 100009388.58953  24423302.375                    24423311.531
 109058245.797 7  84980490.97046  20753094.938                    20753099.461
 113388074.193 7  88354344.78546  21577030.891                    21577036.160
 125118226.015 6  97494713.53844  23809208.133                    23809213.012
 111685361.236 8  87027575.95746  21253020.258                    21253024.809
 122063375.346 7  95114360.02744  23227893.148                    23227901.141
 120813745.064 7  94140625.10045  22990094.266                    22990097.777
 18  5  3  2 14  0.0000000  0 10G29G26G32G27G16G14G22G31G03G23
 120503008.705 7  93898469.67744  22930956.969                    22930963.121
 106202675.297 8  82755372.46847  20209691.711                    20209700.070
 126610672.514 6  98657716.36444  24093223.469                    24093231.523
 128228398.86515  99918275.67952  24401052.523                    24401059.625
 109000852.037 7  84935768.57346  20742172.930                    20742178.078
 113462851.833 7  88412613.05046  21591261.133                    21591266.570
 125184783.470 6  97546576.43444  23821874.328                    23821878.789
 111729284.122 8  87061801.56446  21261378.453                    21261383.211
 122107843.719 7  95149010.68444  23236354.617                    23236363.391
 120725372.915 7  94071763.70444  22973277.625                    22973280.832
 18  5  3  2 14 30.0000000  0 10G29G26G32G27G16G14G22G31G03G23
 120550192.671 7  93935236.38144  22939935.914                    22939942.227
 106206568.192 8  82758405.88747  20210432.641                    20210440.414
 126719960.121 6  98742875.44643  24114018.820                    24114028.930
 128111456.98215                  24378799.188
 108943925.369 8  84891410.13846  20731340.508                    20731344.977
 113538027.722 7  88471191.64046  21605566.492                    21605571.484
 125251571.823 6  97598619.25144  23834583.641                    23834587.879
 111773412.436 8  87096187.24146  21269775.680                    21269780.520
 122152756.602 7  95184007.71544  23244901.859                    23244910.469
 120637258.553 7  94003103.16444  22956509.906                    22956513.664
 18  5  3  2 15  0.0000000  0 10G29G26G32G27G16G14G22G31G03G23
 120597922.750 7  93972428.62845  22949018.078                    22949024.609
 106210906.425 8  82761786.32547  20211258.016                    20211266.145
 126829395.700 6  98828149.83943  24134844.445                    24134853.684
 127994504.75715  99736020.75952  24356543.016                    24356552.539
 108887466.987 7  84847416.60446  20720596.758                    20720601.348
 113613600.467 7  88530079.46546  21619947.508                    21619952.703
 125318588.308 6  97650839.87344  23847336.273                    23847341.031
 111817745.964 8  87130732.82246  21278212.086                    21278216.961
 122198112.146 7  95219349.66544  23253532.813                    23253541.586
 120549405.178 7  93934646.02145  22939791.875                    22939795.551
 18  5  3  2 15 30.0000000  0 10G29G26G32G27G16G14G22G31G03G23
 120646195.748 7  94010043.94044  22958204.461                    22958210.422
 106215687.521 8  82765511.85547  20212167.906                    20212175.855
 126938975.653 6  98913536.74643  24155696.922                    24155705.902
 127877543.66115  99644882.36952  24334285.305                    24334295.313
 108831476.012 8  84803787.28746  20709942.008                    20709946.621
 113689567.067 7  88589274.18546  21634403.578                    21634408.680
 125385828.757 6  97703234.95644  23860131.539                    23860136.262
 111862283.458 8  87165437.34146  21286687.313                    21286692.246
 122243906.535 7  95255033.58644  23262247.203                    23262255.574
 120461813.862 7  93866393.07045  22923124.141                    22923127.543
 18  5  3  2 16  0.0000000  0 10G29G26G32G27G16G14G22G31G03G23
 120695011.162 7  94048081.90544  22967494.000                    22967499.848
 106220911.311 8  82769582.33947  20213162.117                    20213170.191
 127048698.881 6  98999035.27743  24176575.984                    24176585.563
 127760577.36415  99553739.82553  24312027.969                    24312036.637
 108775953.942 8  84760523.34746  20699376.492                    20699380.973
 113765927.206 7  88648775.55345  21648934.297                    21648939.918
 125453291.217 6  97755803.03843  23872969.273                    23872973.543
 111907025.801 8  87200301.49046  21295201.820                    21295206.418
 122290138.406 7  95291058.38944  23271044.703                    23271052.793
 120374488.132 7  93798347.06045  22906505.867                    22906509.363
 18  5  3  2 16 30.0000000  0 10G29G26G32G27G16G14G22G31G03G23
 120744368.626 7  94086542.24344  22976886.586                    22976892.414
 106226578.062 8  82773997.98047  20214240.203                    20214248.293
 127158564.661 6  99084644.90443  24197484.086                    24197492.613
 127643610.067 5  99462596.53943  24289769.688                    24289778.773
 108720902.981 8  84717626.49946  20688900.266                    20688905.273
 113842680.574 7  88708583.34345  21663539.750                    21663545.215
 125520974.617 6  97808543.31943  23885849.820                    23885853.289
 111951974.245 8  87235326.23046  21303755.039                    21303760.137
 122336806.740 7  95327423.28044  23279925.539                    23279933.906
 120287431.668 7  93730510.88245  22889940.367                    22889943.289
 18  5  3  2 17  0.0000000  0 10G29G26G32G27G16G14G22G31G03G23
 120794264.012 7  94125421.73944  22986380.672                    22986387.207
 106232684.425 8  82778756.19247  20215402.438                    20215410.242
 127268568.548 6  99170362.14443  24218416.797                    24218425.949
 127526642.382 5  99371452.99443  24267511.844                    24267520.129
 108666321.458 8  84675095.45346  20678514.094                    20678518.316
 113919823.366 7  88768694.57245  21678219.320                    21678225.281
 125588873.631 6  97861451.58444  23898770.875                    23898774.660
 111997126.413 8  87270509.71846  21312347.484                    21312352.309
 122383906.945 7  95364124.72444  23288888.734                    23288896.852
 120200645.131 7  93662885.02445  22873424.914                    22873428.422
 18  5  3  2 17 30.0000000  0 10G29G26G32G27G16G14G22G31G03G23
 120844697.678 7  94164720.68144  22995978.148                    22995984.512
 106239230.969 8  82783857.39747  20216648.047                    20216656.348
 127378710.236 6  99256186.74543  24239375.930                    24239385.508
 127409678.928 5  99280312.73843  24245254.141                    24245263.492
 108612211.334 8  84632931.72146  20668217.234                    20668222.180
 113997355.994 7  88829109.56845  21692973.523                    21692979.004
 125656987.241 6  97914527.05944  23911731.914                    23911736.137
 112042484.197 8  87305853.42546  21320978.500                    21320983.199
 122431438.395 7  95401162.18144  23297933.242                    23297941.285
 120114132.663 7  93595472.73545  22856962.367                    22856965.504
 18  5  3  2 18  0.0000000  0 10G29G26G32G27G16G14G22G31G03G23
 120895666.457 7  94204436.60244  23005677.172                    23005683.344
 106246215.038 8  82789299.53747  20217977.000                    20217985.313
 127488986.118 6  99342115.91543  24260360.914                    24260370.156
 127292720.933 5  99189176.71743  24222997.836                    24223007.035
 108558571.781 8  84591134.67146  20658010.023                    20658014.457
 114075275.499 7  88889826.03145  21707801.203                    21707806.926
 125725311.262 6  97967766.50644  23924734.500                    23924737.781
 112088045.730 8  87341355.89746  21329648.594                    21329653.680
 122479397.080 7  95438532.57344  23307059.625                    23307067.828
 120027895.036 7  93528274.59545  22840551.961                    22840555.422
 18  5  3  2 18 30.0000000  0 10G29G26G32G27G16G14G22G31G03G23
 120947169.676 7  94244568.95344  23015477.852                    23015484.105
 106253636.304 8  82795082.35447  20219389.211                    20219397.477
 127599394.866 6  99428148.62143  24281370.461                    24281379.746
 127175772.088 6  99098047.80443  24200742.719                    24200752.250
 108505404.083 8  84549705.29446  20647892.500                    20647897.371
 114153581.091 7  88950843.33545  21722702.273                    21722707.965
 125793843.451 6  98021168.15643  23937774.922                    23937779.145
 112133811.852 8  87377017.79046  21338357.602                    21338362.520
 122527781.415 7  95476234.61344  23316266.891                    23316275.516
 119941935.756 7  93461293.35745  22824193.922                    22824197.699
 18  5  3  2 19  0.0000000  0 10G29G26G32G27G16G14G22G31G03G23
 120999205.677 7  94285116.47944  23025380.055                    23025386.219
 106261494.020 8  82801205.25647  20220884.453                    20220892.648
 127709934.787 6  99514283.54843  24302406.719                    24302415.461
 127058835.776 6  99006928.68243  24178491.156                    24178499.277
 108452709.307 8  84508644.43346  20637865.125                    20637869.391
 114232271.659 7  89012160.62345  21737676.602                    21737682.301
 125862581.617 6  98074730.30443  23950855.172                    23950859.359
 112179782.754 8  87412839.25546  21347105.633                    21347110.340
 122576589.422 7  95514266.79344  23325555.203                    23325562.973
 119856257.780 7  93394531.30745  22807890.195                    22807893.527
 18  5  3  2 19 30.0000000  0 10G29G26G32G27G16G14G22G31G03G23
 121051771.528 7  94326076.87044  23035383.125                    23035389.203
 106269785.909 8  82807666.47547  20222462.609                    20222470.758
 127820602.712 6  99600518.17243  24323465.742                    24323474.512
 126941913.685 6  98915820.66943  24156241.727                    24156249.699
 108400486.660 8  84467951.47746  20627927.359                    20627931.758
 114311344.430 7  89073775.73545  21752723.727                    21752729.477
 125931521.603 6  98128449.72744  23963974.867                    23963977.836
 112225957.467 8  87448819.53146  21355892.586                    21355897.289
 122625817.540 7  95552626.33744  23334923.109                    23334930.648
 119770862.692 7  93327989.70145  22791640.297                    22791643.262
 18  5  3  2 20  0.0000000  0 10G29G26G32G27G16G14G22G31G03G23
 121104866.637 7  94367449.67144  23045486.867                    23045492.988
 106278511.720 8  82814465.81647  20224122.875                    20224130.902
 127931397.399 6  99686851.63043  24344549.766                    24344558.176
 126825009.530 6  98824726.61243  24133995.188                    24134003.430
 108348737.622 7  84427627.55446  20618079.688                    20618084.188
 114390798.883 7  89135688.26445  21767843.320                    21767849.465
 126000661.865 6  98182325.18543  23977131.414                    23977135.355
 112272336.651 8  87484959.13546  21364718.188                    21364722.840
 122675464.191 7  95591312.01244  23344370.078                    23344378.211
 119685753.727 7  93261671.03445  22775444.313                    22775447.574
 18  5  3  2 20 30.0000000  0 10G29G26G32G27G16G14G22G31G03G23
 121158487.392 7  94409232.07444  23055690.406                    23055696.496
 106287668.383 8  82821600.88447  20225865.195                    20225873.492
 128042314.814 6  99773280.68643  24365656.203                    24365665.102
 126708124.386 6  98733647.40343  24111751.789                    24111760.590
 108297460.759 8  84387671.56946  20608322.406                    20608327.141
 114470631.470 7  89197895.44745  21783035.516                    21783040.543
 126069997.715 6  98236353.08843  23990325.375                    23990329.551
 112318918.695 8  87521256.81046  21373582.211                    21373587.051
 122725525.051 7  95630320.42844  23353896.844                    23353904.418
 119600931.737 7  93195575.99345  22759303.297                    22759306.551
 18  5  3  2 21  0.0000000  0 10G29G26G32G27G16G14G22G31G03G23
 121212634.140 7  94451424.32544  23065994.461                    23066000.266
 106297257.153 8  82829072.65847  20227689.813                    20227698.418
 128153355.372 6  99859805.69543  24386786.789                    24386795.262
 126591263.602 6  98642587.17543  24089514.297                    24089522.895
 108246659.068 8  84348085.84046  20598655.156                    20598659.637
 114550843.004 7  89260397.91145  21798299.188                    21798304.770
 126139528.619 6  98290532.92943  24003557.063                    24003560.477
 112365705.742 8  87557714.23046  21382485.609                    21382490.555
 122776000.092 7  95669651.59044  23363501.820                    23363509.570
 119516401.619 7  93129708.37445  22743217.797                    22743221.043
 18  5  3  2 21 30.0000000  0 10G29G26G32G27G16G14G22G31G03G23
 121267303.905 7  94494024.14544  23076397.492                    23076403.875
 106307275.403 8  82836879.09047  20229596.570                    20229604.352
 128264515.487 6  99946423.87243  24407940.289                    24407948.430
 126474428.550 6  98551547.00343  24067281.500                    24067290.309
 108196331.361 8  84308869.45246  20589077.688                    20589082.453
 114631430.416 7  89323193.26345  21813634.203                    21813639.918
 126209250.521 6  98344861.60243  24016824.789                    24016828.637
 112412696.399 8  87594330.30346  21391427.469                    21391432.434
 122826885.418 6  95709302.43544  23373184.250                    23373192.699
 119432164.621 7  93064069.16545  22727188.023                    22727191.406
 18  5  3  2 22  0.0000000  0 10G29G26G32G27G16G14G22G31G03G23
 121322495.885 7  94537030.86245  23086900.109                    23086906.758
 106317722.853 8  82845019.96747  20231584.492                    20231592.914
 128375794.065 6 100033134.36243  24429114.883                    24429124.504
 126357623.150 6  98460529.93543  24045054.820                    24045061.969
 108146479.204 8  84270023.62346  20579591.180                    20579595.883
 114712393.148 7  89386281.07045  21829041.055                    21829046.637
 126279161.308 6  98399337.48043  24030128.438                    24030132.254
 112459891.480 8  87631105.66846  21400408.813                    21400413.914
 122878179.405 7  95749271.74744  23382945.820                    23382953.504
 119348224.081 7  92998660.97145  22711214.891                    22711217.598
 18  5  3  2 22 30.0000000  0 10G29G26G32G27G16G14G22G31G03G23
 121378207.754 7  94580442.70544  23097501.828                    23097507.906
 106328598.023 8  82853494.12147  20233654.125                    20233662.441
 128487188.623 6 100119935.19643  24450313.125                    24450321.762
 126240849.958 6  98369537.92843  24022832.594                    24022841.934
 108097102.607 8  84231548.36146  20570195.289                    20570199.660
 114793729.355 7  89449659.90045  21844519.016                    21844524.617
 126349258.030 6  98453958.25643  24043467.352                    24043470.813
 112507290.507 8  87668039.95446  21409428.570                    21409433.543
 122929879.303 6  95789557.34144  23392783.922                    23392791.730
 119264582.218 7  92933485.50845  22695298.211                    22695301.234
 18  5  3  2 23  0.0000000  0 10G29G26G32G27G16G14G22G31G03G23
 121434437.664 7  94624258.20344  23108201.398                    23108208.281
 106339899.620 8  82862300.56547  20235804.570                    20235812.914
 128598697.011 6 100206824.74443  24471532.109                    24471541.527
 126124111.828 6  98278573.26143  24000618.180                    24000626.512
 108048202.067 8  84193444.05746  20560889.750                    20560894.832
 114875437.584 7  89513328.61445  21860067.977                    21860073.063
 126419537.873 6  98508721.73243  24056840.820                    24056845.055
 112554893.654 8  87705133.29346  21418486.906                    21418492.000
 122981982.561 6  95830157.23844  23402698.898                    23402707.410
 119181241.792 7  92868544.92745  22679438.398                    22679442.277
 18  5  3  2 23 30.0000000  0 10G29G26G32G27G16G14G22G31G03G23
 121491182.881 7  94668475.25044  23119000.359                    23119006.762
 106351625.555 8  82871437.65147  20238035.789                    20238044.039
 128710316.291 6 100293800.69443  24492773.422                    24492782.203
 126007410.868 6  98187637.56143  23978410.344                    23978419.668
 107999776.826 8  84155710.10746  20551674.703                    20551679.102
 114957514.796 7  89577284.85045  21875686.188                    21875691.598
 126489996.907 6  98563624.83543  24070249.188                    24070253.102
 112602699.980 8  87742384.95446  21427584.477                    21427589.113
 123034485.673 7  95871068.70344  23412689.797                    23412698.672
 119098204.404 7  92803840.48945  22663637.445                    22663640.777
 18  5  3  2 24  0.0000000  0 10G29G26G32G27G16G14G22G31G03G23
 121548442.605 7  94713093.20544  23129896.273                    23129902.676
 106363775.584 8  82880905.20747  20240347.836                    20240356.109
 128822045.300 6 100380862.19043  24514035.430                    24514044.102
 125890750.935 6  98096733.80443  23956210.750                    23956219.988
 107951828.268 8  84118347.60146  20542550.508                    20542555.180
 115039960.713 7  89641528.38845  21891375.039                    21891380.773
 126560633.531 6  98618666.30143  24083690.766                    24083694.949
 112650710.403 8  87779795.65146  21436720.375                    21436725.637
 123087387.146 7  95912290.59944  23422756.477                    23422765.000
 119015473.613 7  92739374.94645  22647894.234                    22647897.652
 18  5  3  2 24 30.0000000  0 10G29G26G32G27G16G14G22G31G03G23
 121606214.104 7  94758109.93044  23140889.242                    23140896.617
 106376347.515 8  82890701.51347  20242740.133                    20242748.438
 128933880.973 6 100468006.75243  24535316.422                    24535325.707
 125774133.993 6  98005863.55443  23934019.242                    23934027.855
 107904355.978 8  84081356.21647  20533517.383                    20533521.285
 115122772.475 7  89706056.99945  21907133.844                    21907139.098
 126631444.057 6  98673843.27644  24097166.070                    24097169.758
 112698923.680 8  87817364.41846  21445895.148                    21445900.410
 123140683.467 7  95953820.17144  23432898.188                    23432907.516
 118933051.240 7  92675149.72545  22632209.594                    22632212.543
 18  5  3  2 25  0.0000000  0 10G29G26G32G27G16G14G22G31G03G23
 121664496.531 7  94803524.79144  23151980.789                    23151987.297
 106389341.498 8  82900826.68947  20245213.070                    20245221.477
 129045822.628 5 100555233.94642  24556618.469                    24556627.008
 125657564.487 6  97915030.26843  23911836.719                    23911845.328
 107857361.658 8  84044737.26446  20524573.977                    20524578.844
 115205949.949 7  89770870.57045  21922961.844                    21922967.047
 126702427.122 6  98729154.68443  24110673.492                    24110677.801
 112747341.600 8  87855092.65246  21455108.594                    21455113.633
 123194373.440 7  95995656.46444  23443115.242                    23443124.277
 118850940.937 7  92611167.68545  22616584.180                    22616587.395
 18  5  3  2 25 30.0000000  0 10G29G26G32G27G16G14G22G31G03G23
 121723285.966 7  94849334.72544  23163167.914                    23163174.770
 106402754.053 8  82911278.03047  20247765.461                    20247773.547
 129157865.993 6 100642540.33043  24577939.781                    24577948.621
 125541043.049 6  97824234.45743  23889663.578                    23889672.000
 107810843.354 8  84008489.24046  20515721.766                    20515726.637
 115289489.331 7  89835966.16645  21938858.875                    21938864.156
 126773577.419 6  98784596.42743  24124212.844                    24124217.719
 112795961.719 8  87892978.43446  21464360.859                    21464365.676
 123248452.313 7  96037795.82344  23453406.906                    23453415.289
 118769143.056 7  92547429.08645  22601018.891                    22601021.949
 18  5  3  2 26  0.0000000  0 10G29G26G32G27G16G14G22G31G03G23
 121782582.519 7  94895539.80544  23174451.797                    23174457.898
 106416586.042 8  82922056.20047  20250397.641                    20250405.566
 129270010.949 6 100729925.90342  24599279.813                    24599289.332
 125424574.773 6  97733480.03243  23867500.422                    23867508.840
 107764803.517 8  83972614.04746  20506960.883                    20506965.570
 115373390.680 7  89901343.80445  21954825.000                    21954830.480
 126844894.434 6  98840168.07343  24137783.406                    24137788.711
 112844786.153 8  87931023.42546  21473651.969                    21473656.715
 123302919.616 6  96080237.82544  23463770.867                    23463779.523
 118687662.557 7  92483937.79745  22585513.625                    22585516.992
 18  5  3  2 26 30.0000000  0 10G29G26G32G27G16G14G22G31G03G23
 121842382.819 7  94942137.42744  23185831.461                    23185837.840
 106430834.856 8  82933159.17047  20253108.891                    20253117.133
 129382254.085 5 100817387.93143  24620639.070                    24620648.414
 125308161.310 6  97642768.34743  23845347.430                    23845356.172
 107719241.152 8  83937110.91446  20498290.383                    20498295.250
 115457651.194 7  89967001.30845  21970859.078                    21970864.445
 126916374.151 6  98895866.50043  24151386.555                    24151390.602
 112893813.438 8  87969226.47846  21482981.820                    21482986.273
 123357771.307 6  96122979.38344  23474209.438                    23474218.098
 118606500.512 7  92420694.65345  22570069.078                    22570072.004
 18  5  3  2 27  0.0000000  0 10G29G26G32G27G16G14G22G31G03G23
 121902685.583 7  94989126.56244  23197306.773                    23197313.273
 106445499.945 8  82944586.51047  20255899.469                    20255907.980
 129494594.108 5 100904925.48543  24642016.828                    24642025.957
 125191806.277 6  97552102.15444  23823205.516                    23823214.098
 107674157.058 8  83901980.45847  20489711.336                    20489715.996
 115542270.004 7  90032938.01045  21986961.578                    21986966.715
 126988014.368 6  98951689.94843  24165019.344                    24165023.414
 112943044.215 8  88007588.10246  21492349.766                    21492355.070
 123413005.628 6  96166019.05444  23484720.070                    23484728.742
 118525660.297 7  92357702.30345  22554686.016                    22554689.047
 18  5  3  2 27 30.0000000  0 10G29G26G32G27G16G14G22G31G03G23
 121963488.978 7  95036505.82344  23208877.188                    23208883.930
 106460579.932 8  82956337.14847  20258769.406                    20258777.730
 129607028.674 5 100992536.72442  24663411.914                    24663421.121
 125075512.619 6  97461483.80843  23801074.906                    23801084.082
 107629551.403 8  83867222.81246  20481223.195                    20481227.875
 115627245.172 7  90099152.39145  22003131.961                    22003137.547
 127059811.979 6  99007636.07243  24178681.789                    24178685.895
 112992478.677 8  88046108.43646  21501757.031                    21501762.043
 123468619.776 6  96209354.77644  23495302.563                    23495311.805
 118445144.546 7  92294962.76045  22539363.836                    22539367.313
 18  5  3  2 28  0.0000000  0 10G29G26G32G27G16G14G22G31G03G23
 122024790.470 7  95084273.20944  23220542.344                    23220548.691
 106476073.092 8  82968409.74347  20261717.664                    20261725.727
 129719555.310 5 101080219.63642  24684825.063                    24684835.270
 124959282.836 6  97370915.23443  23778957.352                    23778966.234
 107585424.413 8  83832838.15446  20472826.016                    20472830.563
 115712574.638 7  90165642.85545  22019369.641                    22019375.527
 127131764.222 6  99063702.68843  24192374.211                    24192378.074
 113042116.532 8  88084787.26146  21511202.727                    21511207.469
 123524610.749 6  96252984.01044  23505957.734                    23505966.699
 118364954.961 7  92232477.37945  22524104.406                    22524107.938
 18  5  3  2 28 30.0000000  0 10G29G26G32G27G16G14G22G31G03G23
 122086586.802 7  95132426.17644  23232301.828                    23232308.078
 106491977.059 8  82980802.44947  20264744.367                    20264752.148
 129832170.860 5 101167971.84742  24706256.617                    24706265.188
 124843118.804 6  97280397.87443  23756851.758                    23756860.453
 107541774.784 8  83798825.46046  20464519.891                    20464524.402
 115798255.523 7  90232407.13245  22035674.109                    22035679.805
 127203866.919 6  99119886.54243  24206094.727                    24206099.570
 113091955.870 8  88123623.09446  21520686.727                    21520692.125
 123580974.756 6  96296904.03644  23516683.820                    23516692.625
 118285093.267 7  92170247.50645  22508907.289                    22508910.742
 18  5  3  2 29  0.0000000  0 10G29G26G32G27G16G14G22G31G03G23
 122148878.372 7  95180965.04644  23244155.469                    23244161.902
 106508292.865 8  82993516.07047  20267848.508                    20267857.031
 129944875.529 5 101255793.57742  24727702.758                    24727713.918
 124727025.918 6  97189935.92644  23734760.180                    23734769.461
 107498605.049 8  83765186.71746  20456304.789                    20456309.492
 115884288.201 7  90299445.54745  22052045.594                    22052051.258
 127276119.568 6  99176187.21843  24219844.016                    24219847.902
 113141999.465 8  88162618.08446  21530210.008                    21530214.832
 123637711.670 6  96341114.53044  23527480.313                    23527488.551
 118205564.258 7  92108276.86345  22493773.305                    22493776.883
 18  5  3  2 29 30.0000000  0 10G29G26G32G27G16G14G22G31G03G23
 122211661.944 7  95229887.29744  23256103.422                    23256109.578
 106525017.522 8  83006548.26747  20271031.227                    20271039.750
 130057665.713 5 101343681.86642  24749165.414                    24749176.020
 124611005.576 6  97099530.55443  23712682.563                    23712690.957
 107455914.105 8  83731921.05746  20448180.586                    20448185.465
 115970669.326 7  90366755.47245  22068483.414                    22068489.223
 127348517.736 6  99232601.31343  24233621.320                    24233624.512
 113192245.793 8  88201771.04546  21539771.664                    21539776.465
 123694817.044 6  96385612.21344  23538347.016                    23538355.188
 118126369.267 7  92046566.49145  22478702.977                    22478706.414
 18  5  3  2 30  0.0000000  0 10G29G26G32G27G16G14G22G31G03G23
 122274934.143 7  95279190.31244  23268142.945                    23268150.203
 106542148.984 8  83019897.46247  20274291.281                    20274299.590
 130170538.24515 101431634.35453  24770644.695                    24770654.984
 124495059.822 6  97009183.26544  23690618.266                    23690627.594
 107413701.105 8  83699027.82347  20440148.352                    20440152.801
 116057396.584 7  90434335.11245  22084987.125                    22084992.555
 127421058.185 6  99289126.25043  24247424.938                    24247428.242
 113242694.392 8  88241081.61646  21549371.898                    21549376.500
 123752287.351 6  96430394.19644  23549283.430                    23549292.141
 118047509.729 7  91985117.50445  22463697.039                    22463699.953
 18  5  3  2 30 30.0000000  0 10G29G26G32G27G16G14G22G31G03G23
 122338694.674 7  95328873.84044  23280276.539                    23280282.984
 106559687.883 8  83033564.13547  20277628.852                    20277636.941
 130283493.033 5 101519650.90743  24792138.938                    24792150.402
 124379193.658 6  96918897.97944  23668570.102                    23668578.484
 107371968.268 8  83666508.74346  20432206.852                    20432211.145
 116144470.084 7  90502184.55745  22101556.398                    22101562.824
 127493739.871 6  99345761.26043  24261255.305                    24261259.602
 113293346.505 8  88280550.77846  21559010.344                    21559015.059
 123810121.960 6  96475460.09444  23560288.492                    23560297.285
 117968990.317 7  91923933.56245  22448754.977                    22448758.074
 18  5  3  2 31  0.0000000  0 10G29G26G32G27G16G14G22G31G03G23
 122402940.570 7  95378935.56644  23292502.031                    23292508.629
 106577631.713 8  83047546.33847  20281043.484                    20281051.656
 130396527.014 5 101607729.16042  24813649.109                    24813659.480
 124263408.981 6  96828676.18844  23646536.789                    23646545.734
 107330714.629 8  83634363.06247  20424356.352                    20424360.977
 116231886.862 7  90570301.48445  22118191.742                    22118197.418
 127566558.791 6  99402503.19643  24275112.813                    24275116.602
 113344201.079 8  88320177.69746  21568687.516                    21568692.707
 123868316.964 6  96520806.81044  23571363.625                    23571371.637
 117890812.366 8  91863015.68345  22433878.602                    22433881.059
 18  5  3  2 31 30.0000000  0 10G29G26G32G27G16G14G22G31G03G23
 122467669.926 7  95429374.03644  23304820.344                    23304826.230
 106595979.109 8  83061843.01547  20284534.750                    20284543.113
 130509637.745 5 101695867.22243  24835173.578                    24835183.531
 124147708.766 6  96738520.20044  23624519.617                    23624528.855
 107289940.114 8  83602590.72947  20416597.250                    20416601.738
 116319644.913 7  90638684.34345  22134891.320                    22134897.035
 127639512.039 6  99459349.81743  24288994.914                    24288999.105
 113395258.269 8  88359962.50146  21578403.359                    21578408.277
 123926869.664 6  96566432.24344  23582505.500                    23582514.441
 117812978.526 7  91802365.94145  22419066.891                    22419070.023
 18  5  3  2 32  0.0000000  0 10G29G26G32G27G16G14G22G31G03G23
 122532881.180 7  95480187.98244  23317228.805                    23317235.281
 106614729.595 8  83076453.78147  20288102.727                    20288111.145
 130622824.282 5 101784064.36143  24856712.555                    24856723.512
 124032096.852 6  96648433.04044  23602519.383                    23602528.516
 107249645.771 8  83571192.54647  20408929.422                    20408933.789
 116407743.351 7  90707332.43145  22151656.000                    22151661.504
 127712597.742 6  99516299.62643  24302902.438                    24302906.883
 113446518.986 8  88399905.88746  21588158.188                    21588162.785
 123985778.257 6  96612334.98644  23593715.906                    23593724.254
 117735492.116 8  91741986.93445  22404321.500                    22404324.898
 18  5  3  2 32 30.0000000  0 10G29G26G32G27G16G14G22G31G03G23
 122598570.285 7  95531374.28744  23329729.195                    23329735.715
 106633879.893 8  83091376.09347  20291747.047                    20291755.180
 130736082.522 5 101872317.40642  24878265.258                    24878275.742
 123916574.344 6  96558415.54744  23580536.438                    23580544.965
 107209829.826 8  83540167.15446  20401352.859                    20401357.223
 116496178.449 7  90776242.84645  22168484.453                    22168490.352
 127785811.041 6  99573348.86843  24316834.211                    24316839.098
 113497981.166 8  88440006.26446  21597951.086                    21597955.996
 124045038.112 6  96658511.43444  23604991.852                    23605000.059
 117658353.653 8  91681879.05745  22389642.656                    22389645.977
 18  5  3  2 33  0.0000000  0 10G29G26G32G27G16G14G22G31G03G23
 122664736.908 7  95582932.68244  23342320.492                    23342326.309
 106653430.496 8  83106610.33147  20295467.516                    20295475.750
 130849412.00015 101960625.93153  24899831.969                    24899841.695
 123801146.133 6  96468471.54244  23558570.922                    23558579.586
 107170494.486 8  83509516.25647  20393867.555                    20393871.438
 116584950.349 7  90845415.71545  22185377.367                    22185383.043
 127859151.338 6  99630497.11143  24330791.039                    24330796.086
 113549646.874 8  88480265.23346  21607782.531                    21607787.836
 124104648.274 6  96704960.88144  23616335.500                    23616344.664
 117581567.804 8  91622045.93945  22375031.141                    22375034.492
 18  5  3  2 33 30.0000000  0 10G29G26G32G27G16G14G22G31G03G23
 122731377.844 7  95634860.69844  23355001.195                    23355007.883
 106673378.760 8  83122154.43847  20299263.375                    20299271.898
 130962809.583 5 102048987.53043  24921410.742                    24921420.449
 123685813.857 6  96378602.26844  23536623.758                    23536632.395
 107131637.839 8  83479238.35747  20386473.242                    20386477.836
 116674055.849 7  90914848.52045  22202333.797                    22202339.270
 127932614.186 6  99687740.82543  24344770.672                    24344774.664
 113601514.650 8  88520681.65646  21617652.391                    21617658.070
 124164604.754 6  96751680.17344  23627745.469                    23627753.168
 117505135.791 8  91562488.54845  22360486.133                    22360489.465
 18  5  3  2 34  0.0000000  0 10G29G26G32G27G16G14G22G31G03G23
 122798491.227 6  95687156.83444  23367773.125                    23367779.805
 106693723.728 8  83138007.66147  20303134.688                    20303143.285
 131076273.316 5 102137400.69843  24943001.828                    24943012.414
 123570581.142 6  96288810.54944  23514695.391                    23514704.371
 107093260.771 8  83449334.16546  20379170.398                    20379174.871
 116763493.577 7  90984540.21745  22219352.844                    22219358.559
 128006197.372 6  99745078.28043  24358773.430                    24358777.555
 113653584.665 8  88561255.66546  21627561.406                    21627566.215
 124224905.195 6  96798667.48744  23639219.883                    23639228.180
 117429060.406 8  91503209.04045  22346010.055                    22346012.973
 18  5  3  2 34 30.0000000  0 10G29G26G32G27G16G14G22G31G03G23
 122866075.410 7  95739819.83244  23380633.836                    23380640.496
 106714464.586 8  83154169.37547  20307081.867                    20307090.121
 131189801.932 5 102225864.38543  24964605.758                    24964616.520
 123455451.455 6  96199099.13044  23492788.430                    23492795.754
 107055364.166 8  83419804.35647  20371959.141                    20371963.383
 116853262.285 7  91054489.80745  22236435.273                    22236441.059
 128079898.716 6  99802507.80743  24372797.797                    24372802.410
 113705857.722 8  88601987.90046  21637508.734                    21637513.918
 124285547.511 6  96845921.16644  23650760.258                    23650768.512
 117353345.000 8  91444210.03045  22331601.586                    22331604.289
 18  5  3  2 35  0.0000000  0 10G29G26G32G27G16G14G22G31G03G23
 122934126.864 7  95792846.92744  23393583.891                    23393590.508
 106735598.672 8  83170637.49747  20311103.352                    20311111.816
 131303391.83615 102314375.81552  24986221.367                    24986231.602
 123340426.549 6  96109469.35044  23470898.773                    23470907.535
 107017946.136 8  83390647.46146  20364838.563                    20364842.770
 116943358.691 7  91124694.74645  22253580.430                    22253585.977
 128153714.285 6  99860026.30043  24386845.016                    24386848.996
 113758332.599 8  88642877.39446  21647494.586                    21647499.527
 124346527.490 6  96893437.99244  23662363.656                    23662373.078
 117277990.738 8  91385492.44545  22317262.023                    22317265.066
 18  5  3  2 35 30.0000000  0 10G29G26G32G27G16G14G22G31G03G23
 123002643.885 6  95846236.79344  23406622.016                    23406628.953
 106757125.099 8  83187411.34347  20315199.805                    20315207.934
 131417040.52415 102402932.83452  25007847.953                    25007858.773
 123225509.963 6  96019923.98644  23449030.992                    23449039.395
 106981007.662 7  83361864.25447  20357809.047                    20357813.961
 117033781.152 7  91195153.75545  22270786.945                    22270792.969
 128227641.710 6  99917632.03543  24400912.430                    24400916.785
 113811009.860 8  88683924.58746  21657518.445                    21657523.434
 124407842.970 6  96941216.22344  23674031.867                    23674040.723
 117203000.545 8  91327058.52945  22302991.828                    22302994.941
 18  5  3  2 36  0.0000000  0 10G29G26G32G27G16G14G22G31G03G23
 123071625.614 6  95899988.78544  23419748.398                    23419755.059
 106779043.590 8  83204490.68647  20319370.891                    20319379.043
 131530748.91215 102491536.64052  25029487.266                    25029496.871
 123110705.868 6  95930466.28544  23427184.977                    23427193.574
 106944549.768 8  83333455.52047  20350871.563                    20350875.809
 117124529.127 7  91265866.41045  22288056.125                    22288061.945
 128301679.032 6  99975323.41542  24415002.414                    24415006.879
 113863890.567 8  88725130.31346  21667581.273                    21667586.258
 124469492.243 6  96989254.57744  23685763.547                    23685772.016
 117128378.487 8  91268911.48145  22288791.719                    22288795.270
 18  5  3  2 36 30.0000000  0 10G29G26G32G27G16G14G22G31G03G23
 123141067.448 7  95954099.30144  23432963.000                    23432969.473
 106801350.759 8  83221872.90447  20323615.766                    20323624.133
 131644512.50215                  25051135.234
 122996015.334 6  95841097.06844  23405359.555                    23405368.516
 106908570.428 7  83305419.68447  20344024.711                    20344029.223
 117215598.788 7  91336829.73745  22305386.602                    22305391.500
 128375821.869 6 100033096.95442  24429111.078                    24429115.590
 113916972.646 8  88766492.94746  21677682.453                    21677687.371
 124531470.549 6  97037549.30244  23697556.727                    23697566.430
 117054124.589 8  91211051.29845  22274662.008                    22274665.098
 18  5  3  2 37  0.0000000  0 10G29G26G32G27G16G14G22G31G03G23
 123210967.916 7  96008567.19643  23446264.773                    23446271.211
 106824045.729 8  83239557.29447  20327934.398                    20327942.652
 131758329.10515 102668871.80653  25072794.102                    25072804.113
 122881441.804 6  95751819.01743  23383556.641                    23383565.559
 106873069.927 7  83277756.97847  20337269.539                    20337273.484
 117306988.634 7  91408042.55145  22322777.039                    22322782.738
 128450067.767 6 100090950.77743  24443239.352                    24443244.391
 113970256.441 8  88808012.76346  21687821.781                    21687827.031
 124593775.570 6  97086098.59944  23709413.414                    23709422.527
 116980242.261 8  91153480.66345  22260602.703                    22260605.418
 18  5  3  2 37 30.0000000  0 10G29G26G32G27G16G14G22G31G03G23
 123281325.411 7  96063391.19944  23459653.688                    23459659.012
 106847128.214 8  83257543.63947  20332326.961                    20332335.176
 131872197.42315 102757600.21053  25094462.359                    25094472.719
 122766989.698 6  95662635.59444  23361777.500                    23361785.680
 106838049.755 8  83250468.54547  20330605.195                    20330609.531
 117398698.045 7  91479504.38445  22340228.906                    22340234.727
 128524414.769 6 100148883.45042  24457387.031                    24457391.813
 114023743.163 8  88849690.70046  21698000.383                    21698005.113
 124656405.639 6  97134901.18644  23721331.656                    23721340.629
 116906734.984 8  91096202.27045  22246614.680                    22246618.137
 18  5  3  2 38  0.0000000  0 10G29G26G32G27G16G14G22G31G03G23
 123352136.476 7  96118568.63244  23473128.719                    23473134.949
 106870595.139 8  83275829.55547  20336792.680                    20336800.859
 131986113.95915 102846366.25752  25116139.891                    25116149.531
 122652660.214 6  95573547.75044  23340020.555                    23340030.785
 106803507.707 7  83223552.67646  20324031.914                    20324036.762
 117490723.391 7  91551212.39244  22357741.313                    22357746.047
 128598859.023 6 100206891.86143  24471554.125                    24471558.359
 114077431.144 8  88891525.47046  21708216.773                    21708222.098
 124719356.285 6  97183953.61844  23733310.875                    23733319.617
 116833603.757 8  91039216.90445  22232697.914                    22232701.141
 18  5  3  2 38 30.0000000  0 11G29G26G32G09G27G16G14G22G31G03G23
 123423399.083 7  96174097.92344  23486688.805                    23486695.547
 106894445.299 8  83294414.10047  20341331.266                    20341339.125
 132100077.00215                  25137827.133
 131338619.04815                  24992899.258
 122538456.727 6  95484558.07344  23318288.891                    23318297.820
 106769444.097 8  83197009.61447  20317550.094                    20317554.559
 117583062.790 7  91623165.12445  22375312.133                    22375317.949
 128673397.632 6 100264973.80743  24485737.359                    24485743.316
 114131320.780 8  88933517.38246  21718471.539                    21718476.910
 124782624.948 6  97233253.82044  23745351.063                    23745359.570
 116760851.304 7  90982526.68345  22218853.930                    22218856.727
 18  5  3  2 39  0.0000000  0 11G29G26G32G09G27G16G14G22G31G03G23
 123495111.323 7  96229977.57143  23500335.789                    23500341.961
 106918677.974 8  83313296.69947  20345942.281                    20345950.859
 132214085.04315 103024005.86653  25159521.148                    25159531.539
 131233356.249 5 102259753.14552  24972868.508                    24972876.578
 122424382.840 6  95395669.38844  23296581.500                    23296590.090
 106735859.981 8  83170840.17747  20311159.289                    20311163.289
 117675714.944 7  91695361.55245  22392943.898                    22392949.645
 128748028.393 6 100323127.57143  24499939.672                    24499944.832
 114185412.557 8  88975666.79446  21728764.938                    21728769.773
 124846209.420 6  97282800.09344  23757450.430                    23757459.250
 116688480.832 7  90926134.11345  22205082.180                    22205085.465
 18  5  3  2 39 30.0000000  0 11G29G26G32G09G27G16G14G22G31G03G23
 123567270.580 7  96286205.53544  23514066.695                    23514073.867
 106943291.429 8  83332476.01347  20350626.289                    20350634.305
 132328134.66915 103112875.35052  25181224.609                    25181234.520
 131128214.72514 102177824.67252  24952859.469                    24952869.297
 122310441.460 6  95306883.94444  23274898.695                    23274907.746
 106702754.426 8  83145043.65447  20304859.367                    20304863.523
 117768677.659 7  91767799.98545  22410633.398                    22410639.613
 128822748.378 6 100381350.86143  24514159.086                    24514163.387
 114239706.454 8  89017973.70746  21739096.875                    21739102.035
 124910106.652 6  97332590.08844  23769609.805                    23769618.848
 116616494.430 7  90870040.82245  22191383.469                    22191386.867
 18  5  3  2 40  0.0000000  0 11G29G26G32G09G27G16G14G22G31G03G23
 123639874.398 7  96342779.91144  23527883.273                    23527889.797
 106968283.716 8  83351950.51647  20355381.813                    20355390.301
 132442225.35415 103201777.08452  25202935.609                    25202946.039
 131023196.36715                  24932876.172
 122196635.023 6  95218203.66344  23253242.055                    23253250.930
 106670126.364 8  83119619.20246  20298650.641                    20298654.770
 117861948.558 7  91840478.56744  22428382.992                    22428388.320
 128897554.309 6 100439641.09443  24528393.938                    24528398.531
 114294201.919 8  89060437.68346  21749467.016                    21749472.121
 124974313.211 6  97382621.14444  23781828.234                    23781836.750
 116544894.111 8  90814248.36645  22177758.094                    22177761.668
 18  5  3  2 40 30.0000000  0 11G29G26G32G09G27G16G14G22G31G03G23
 123712921.235 7  96399699.49744  23541783.875                    23541790.020
 106993654.467 8  83371719.92547  20360210.125                    20360218.195
 132556355.01115                  25224653.422
 130918304.75614                  24912916.367
 122082967.680 6  95129631.76544  23231611.859                    23231621.082
 106637977.088 7  83094567.82947  20292532.523                    20292537.066
 117955526.888 7  91913396.70545  22446189.977                    22446195.906
 128972444.873 6 100497997.29542  24542645.828                    24542649.410
 114348899.748 8  89103059.34646  21759875.750                    21759880.426
 125038827.324 6  97432891.82044  23794104.844                    23794113.285
 116473683.612 8  90758759.67645  22164207.414                    22164210.777
 18  5  3  2 41  0.0000000  0 11G29G26G32G09G27G16G14G22G31G03G23
 123786407.251 7  96456961.30144  23555767.219                    23555774.266
 107019400.729 8  83391781.95147  20365109.336                    20365117.566
 132670519.906 5 103379668.68352  25246377.945                    25246389.480
 130813540.72114                  24892982.055
 121969440.976 6  95041169.44944  23210008.477                    23210017.063
 106606305.182 8  83069888.42846  20286505.805                    20286510.230
 118049408.923 7  91986551.48144  22464055.141                    22464060.973
 129047415.230 6 100556415.63442  24556910.602                    24556915.070
 114403798.489 8  89145837.55846  21770322.664                    21770327.609
 125103644.655 6  97483398.77844  23806439.211                    23806447.934
 116402863.799 8  90703575.41245  22150730.891                    22150733.895
 18  5  3  2 41 30.0000000  0 11G29G26G32G09G27G16G14G22G31G03G23
 123860331.502 7  96514564.58744  23569834.711                    23569841.449
 107045522.623 8  83412136.66947  20370080.359                    20370088.145
 132784719.592 5 103468655.38643  25268110.047                    25268121.000
 130708908.50514                  24873068.625
 121856059.579 6  94952820.35544  23188432.250                    23188440.809
 106575111.926 8  83045582.00947  20280569.406                    20280574.414
 118143594.253 7  92059942.60644  22481977.852                    22481983.988
 129122464.324 6 100614895.38742  24571192.375                    24571196.887
 114458899.687 8  89188773.54046  21780807.773                    21780812.957
 125168763.860 6  97534140.96044  23818830.602                    23818840.102
 116332439.016 7  90648698.95445  22137329.320                    22137333.027
 18  5  3  2 42  0.0000000  0 11G29G26G32G09G27G16G14G22G31G03G23
 123934690.601 7  96572506.71543  23583985.164                    23583991.199
 107072017.494 8  83432782.02047  20375121.656                    20375130.434
 132898950.831 5 103557666.61842  25289846.477                    25289857.613
 130604409.38515                  24853182.805
 121742825.394 6  94864585.97344  23166885.102                    23166893.676
 106544396.048 8  83021647.56047  20274724.734                    20274729.379
 118238079.573 7  92133567.47044  22499958.516                    22499964.438
 129197588.291 6 100673433.45943  24585488.445                    24585492.938
 114514202.358 8  89231866.51846  21791331.867                    21791336.660
 125234180.897 6  97585115.23544  23831279.531                    23831288.734
 116262409.864 8  90594130.79645  22124003.414                    22124007.063
 18  5  3  2 42 30.0000000  0 11G29G26G32G09G27G16G14G22G31G03G23
 124009482.823 7  96630786.33043  23598217.258                    23598223.723
 107098884.482 8  83453717.33147  20380234.555                    20380243.191
 133013212.100 5 103646701.21542  25311590.445                    25311601.477
 130500046.38915                  24833324.922
 121629741.908 6  94776469.01744  23145366.125                    23145374.391
 106514157.711 8  82998085.23047  20268970.977                    20268975.449
 118332863.492 7  92207425.02044  22517995.000                    22518000.902
 129272784.698 6 100732027.94743  24599797.727                    24599802.125
 114569706.997 8  89275116.87346  21801894.148                    21801899.051
 125299893.509 6  97636319.80244  23843784.133                    23843792.828
 116192779.958 8  90539873.73345  22110753.555                    22110756.840
 18  5  3  2 43  0.0000000  0 10G29G26G09G27G16G14G22G31G03G23
 124084703.814 7  96689400.07243  23612531.008                    23612537.648
 107126120.238 8  83474939.99847  20385417.078                    20385425.199
 130395820.27415                  24813488.727
 121516810.485 6  94688470.56044  23123875.297                    23123883.711
 106484394.835 8  82974893.38947  20263307.047                    20263311.535
 118427942.304 7  92281512.35744  22536088.156                    22536093.805
 129348049.717 6 100790675.91043  24614120.328                    24614124.570
 114625411.604 8  89318523.03946  21812494.156                    21812499.344
 125365896.928 7  97687750.96944  23856344.180                    23856353.336
 116123549.681 8  90485928.05845  22097579.156                    22097582.418
 18  5  3  2 43 30.0000000  0 10G29G26G09G27G16G14G22G31G03G23
 124160353.068 7  96748347.52544  23626926.414                    23626933.195
 107153725.399 8  83496450.50547  20390670.117                    20390678.629
 130291735.479 5                  24793683.125
 121404036.201 6  94600594.53444  23102415.078                    23102423.926
 106455109.175 8  82952073.39447  20257734.102                    20257738.668
 118523315.981 7  92355829.45644  22554236.883                    22554243.301
 129423381.914 6 100849376.19843  24628455.758                    24628460.086
 114681318.217 8  89362086.62246  21823132.727                    21823137.484
 125432190.271 6  97739408.06144  23868958.969                    23868968.668
 116054723.634 8  90432297.37045  22084482.023                    22084485.395
 18  5  3  2 44  0.0000000  0 10G29G26G09G27G16G14G22G31G03G23
 124236428.376 7  96807626.95543  23641404.367                    23641409.840
 107181698.384 8  83518247.64047  20395993.867                    20396002.203
 130187794.565 5                  24773902.953
 121291422.036 6  94512843.29244  23080985.758                    23080993.930
 106426300.437 8  82929625.03147  20252251.727                    20252256.125
 118618982.429 7  92430374.67844  22572442.172                    22572447.406
 129498778.438 5 100908126.61342  24642803.516                    24642808.125
 114737426.923 8  89405807.67146  21833810.023                    21833814.863
 125498770.615 6  97791288.79444  23881629.094                    23881638.887
 115986304.235 8  90378983.55645  22071462.219                    22071465.402
 18  5  3  2 44 30.0000000  0 10G29G26G09G27G16G14G22G31G03G23
 124312925.917 7  96867235.41243  23655960.602                    23655966.828
 107210036.360 8  83540329.17447  20401386.016                    20401394.574
 130083998.660 5                  24754151.148
 121178969.760 7  94425218.19044  23059586.539                    23059595.340
 106397967.304 8  82907547.27147  20246860.016                    20246864.766
 118714938.351 7  92505145.46844  22590701.516                    22590707.871
 129574235.163 6 100966924.06343  24657162.594                    24657166.512
 114793736.304 8  89449685.09246  21844525.547                    21844529.969
 125565633.706 6  97843389.84644  23894352.656                    23894362.469
 115918292.841 8  90325987.66246  22058519.938                    22058523.273
 18  5  3  2 45  0.0000000  0 10G29G26G09G27G16G14G22G31G03G23
 124389844.116 7  96927171.64743  23670597.664                    23670604.445
 107238738.387 8  83562694.38647  20406847.930                    20406855.957
 129980350.901 5                  24734428.398
 121066682.908 7  94337721.98744  23038219.406                    23038227.207
 106370109.503 7  82885839.89847  20241559.297                    20241563.449
 118811181.961 7  92580140.43444  22609016.242                    22609021.703
 129649750.031 6 101025766.73642  24671532.648                    24671536.328
 114850246.808 8  89493719.23646  21855279.133                    21855283.918
 125632777.068 6  97895709.28044  23907130.133                    23907139.102
 115850692.281 8  90273311.90446  22045656.016                    22045659.625
 18  5  3  2 45 30.0000000  0 10G29G26G09G27G16G14G22G31G03G23
 124467179.533 7  96987432.99344  23685314.008                    23685320.258
 107267802.780 8  83585341.96147  20412378.695                    20412386.918
 129876853.509 5                  24714732.820
 120954564.301 6  94250356.88944  23016883.930                    23016892.055
 106342726.841 7  82864502.76147  20236348.688                    20236353.160
 118907710.977 7  92655357.80844  22627385.320                    22627391.160
 129725320.186 6 101084652.44543  24685913.070                    24685917.254
 114906958.404 8  89537910.06846  21866070.594                    21866075.453
 125700197.624 6  97948244.74644  23919959.813                    23919969.305
 115783504.423 7  90220957.73546  22032870.773                    22032873.918
 18  5  3  2 46  0.0000000  0 10G29G26G09G27G16G14G22G31G03G23
 124544930.432 6  97048018.08244  23700109.453                    23700115.988
 107297228.593 8  83608271.16247  20417978.523                    20417986.418
 129773509.582 5 101122201.69552  24695067.758                    24695075.031
 120842617.673 7  94163125.79444  22995580.617                    22995589.168
 106315819.333 8  82843535.88447  20231228.031                    20231232.828
 119004523.912 7  92730796.38944  22645808.367                    22645813.711
 129800943.413 6 101143579.53743  24700304.125                    24700308.629
 114963871.348 8  89582257.79346  21876901.016                    21876906.398
 125767893.076 6  98000994.38343  23932841.313                    23932851.348
 115716732.448 8  90168927.62546  22020164.406                    22020167.652
 18  5  3  2 46 30.0000000  0 10G29G26G09G27G16G14G22G31G03G23
 124623093.553 7  97108924.37844  23714983.492                    23714990.262
 107327013.129 8  83631479.89247  20423646.055                    20423654.195
 129670320.602 5 101041794.62952  24675431.234                    24675438.887
 120730844.785 7  94076030.09044  22974311.008                    22974319.465
 106289385.599 7  82822938.18047  20226197.617                    20226202.668
 119101617.525 7  92806453.69744  22664284.703                    22664290.520
 129876615.582 5 101202544.79442  24714703.117                    24714708.988
 115020984.500 8  89626761.52646  21887769.477                    21887774.141
 125835859.217 6  98053954.91343  23945774.797                    23945784.887
 115650377.505 7  90117222.47646  22007537.242                    22007541.125
 18  5  3  2 47  0.0000000  0 10G29G26G09G27G16G14G22G31G03G23
 124701668.212 7  97170151.35844  23729935.781                    23729942.246
 107357156.734 8  83654968.41847  20429382.148                    20429390.656
 129567290.790 5 100961511.71742  24655824.766                    24655834.371
 120619250.668 7  93989073.67844  22953075.391                    22953083.445
 106263427.015 7  82802710.71547  20221257.773                    20221262.324
 119198991.801 7  92882329.69044  22682813.570                    22682819.602
 129952336.116 5 101261547.68242  24729112.930                    24729117.500
 115078299.803 8  89671422.79046  21898675.906                    21898680.969
 125904094.944 6  98107125.57644  23958760.133                    23958769.059
 115584443.934 7  90065845.66345  21994990.516                    21994994.359
 18  5  3  2 47 30.0000000  0 10G29G26G09G27G16G14G22G31G03G23
 124780650.514 7  97231695.99944  23744965.531                    23744971.793
 107387656.724 8  83678734.64247  20435186.211                    20435194.320
 129464421.728 6 100881354.04742  24636249.789                    24636258.371
 120507837.111 7  93902257.98144  22931874.500                    22931882.664
 106237942.381 8  82782852.57047  20216408.500                    20216413.008
 119296643.366 7  92958421.76144  22701396.516                    22701402.406
 130028100.820 5 101320584.98642  24743530.523                    24743534.965
 115135816.020 8  89716240.60446  21909621.086                    21909626.109
 125972596.204 6  98160503.09243  23971795.352                    23971804.887
 115518933.270 7  90014798.39346  21982524.266                    21982527.199
 18  5  3  2 48  0.0000000  0 10G29G26G09G27G16G14G22G31G03G23
 124860036.147 7  97293554.89244  23760071.859                    23760078.973
 107418509.774 8  83702775.97847  20441057.211                    20441065.398
 129361713.957 5 100801322.01243  24616705.039                    24616712.926
 120396605.354 6  93815583.93644  22910707.141                    22910715.402
 106212928.890 8  82763361.54247  20211648.664                    20211653.102
 119394567.929 6  93034726.56344  22720031.086                    22720037.031
 130103905.174 5 101379653.27442  24757955.539                    24757960.426
 115193531.205 8  89761213.45846  21920604.047                    21920609.063
 126041358.095 6  98214083.72043  23984880.406                    23984889.867
 115453845.819 7  89964080.89945  21970138.695                    21970142.027
 18  5  3  2 48 30.0000000  0 10G29G26G09G27G16G14G22G31G03G23
 124939826.392 7  97355729.08544  23775256.188                    23775262.145
 107449718.027 8  83727094.09847  20446996.070                    20447004.375
 129259173.794 6 100721420.67642  24597193.016                    24597200.832
 120285562.158 7  93729056.82244  22889576.750                    22889584.215
 106188390.133 8  82744240.44247  20206978.883                    20206983.398
 119492767.285 7  93111245.49144  22738718.352                    22738724.098
 130179749.994 5 101438753.06142  24772389.375                    24772393.855
 115251449.422 8  89806344.51346  21931625.281                    21931630.738
 126110381.420 6  98267868.05443  23998015.188                    23998025.008
 115389187.473 7  89913697.76946  21957834.531                    21957838.207
 18  5  3  2 49  0.0000000  0 11G29G26G21G09G27G16G14G22G31G03G23
 125020016.273 7  97418214.68343  23790515.461                    23790522.215
 107481277.539 8  83751685.92847  20453001.547                    20453009.617
 133461703.04215 103996197.73452  25396927.797                    25396935.605
 129156801.356 6 100641650.00443  24577711.211                    24577720.137
 120174708.101 6  93642677.08944  22868481.305                    22868489.391
 106164323.417 8  82725487.16547  20202399.555                    20202403.527
 119591237.006 6  93187975.08944  22757456.266                    22757461.762
 130255630.333 6 101497880.47342  24786828.078                    24786832.926
 115309567.385 8  89851631.20946  21942685.125                    21942689.727
 126179660.697 6  98321851.85243  24011198.492                    24011209.063
 115324958.076 7  89863648.89046  21945612.352                    21945615.492
 18  5  3  2 49 30.0000000  0 11G29G26G21G09G27G16G14G22G31G03G23
 125100603.870 7  97481010.17644  23805850.609                    23805857.746
 107513187.366 8  83776550.72747  20459073.781                    20459082.039
 133411347.952 5 103956959.99743  25387345.266                    25387353.551
 129054599.818 6 100562012.49643  24558263.375                    24558271.387
 120064046.946 6  93556447.67244  22847423.750                    22847432.039
 106140728.675 8  82707101.66647  20197909.438                    20197913.559
 119689975.490 6  93264914.11544  22776245.391                    22776251.492
 130331543.992 5 101557033.87642  24801274.375                    24801279.789
 115367886.074 8  89897074.32546  21953782.813                    21953787.590
 126249193.648 6  98376033.33043  24024430.273                    24024439.820
 115261160.890 7  89813936.79846  21933471.617                    21933475.227
 18  5  3  2 50  0.0000000  0 11G29G26G21G09G27G16G14G22G31G03G23
 125181587.108 7  97544113.97843  23821261.469                    23821267.883
 107545446.553 8  83801687.75047  20465212.391                    20465220.789
 133361157.819 5 103917850.89142  25377794.531                    25377802.723
 128952572.314 6 100482510.54442  24538847.469                    24538856.574
 119953582.201 7  93470371.30944  22826402.648                    22826411.453
 106117605.925 8  82689083.94747  20193509.336                    20193514.020
 119788980.947 6  93342061.17544  22795086.023                    22795091.801
 130407488.688 5 101616211.47942  24815725.727                    24815731.551
 115426406.141 7  89942674.35246  21964918.672                    21964923.762
 126318977.789 6  98430410.50843  24037709.734                    24037719.738
 115197798.522 7  89764563.52246  21921414.547                    21921418.207
 18  5  3  2 50 30.0000000  0 11G29G26G21G09G27G16G14G22G31G03G23
 125262961.460 7  97607522.55344  23836746.422                    23836752.656
 107578051.600 8  83827094.28547  20471417.094                    20471425.203
 133311133.567 5 103878871.02642  25368276.242                    25368283.238
 128850719.356 5 100403144.67142  24519465.813                    24519474.898
 119843315.001 6  93384448.86944  22805419.766                    22805427.824
 106094952.744 8  82671432.12747  20189198.602                    20189202.961
 119888249.231 6  93419413.02844  22813975.328                    22813981.930
 130483459.911 5 101675409.66042  24830183.281                    24830188.547
 115485125.582 8  89988429.74746  21976092.555                    21976097.848
 126389008.220 6  98484979.57443  24051036.414                    24051045.695
 115134871.623 7  89715529.58446  21909439.773                    21909443.289
 18  5  3  2 51  0.0000000  0 11G29G26G21G09G27G16G14G22G31G03G23
 125344726.218 7  97671235.31544  23852306.031                    23852312.383
 107611002.993 8  83852770.69747  20477687.695                    20477695.320
 133261279.730 5 103840023.91142  25358788.930                    25358796.207
 128749045.423 6 100323918.26842  24500118.367                    24500126.746
 119733250.165 7  93298684.10944  22784475.234                    22784482.898
 106072770.885 8  82654147.57247  20184977.063                    20184981.902
 119987780.316 6  93496969.66944  22832915.484                    22832921.680
 130559456.506 5 101734627.68742  24844645.148                    24844649.832
 115544045.919 8  90034341.67446  21987304.555                    21987309.836
 126459283.665 6  98539739.61643  24064409.992                    24064419.191
 115072384.319 7  89666838.18146  21897548.906                    21897552.547
 18  5  3  2 51 30.0000000  0 11G29G26G21G09G27G16G14G22G31G03G23
 125426878.071 7  97735249.71843  23867939.273                    23867945.891
 107644298.009 8  83878714.85847  20484023.352                    20484031.680
 133211597.604 5 103801310.67042  25349334.445                    25349342.063
 128647552.333 6 100244832.76043  24480804.016                    24480813.574
 119623390.022 7  93213078.85644  22763569.063                    22763577.371
 106051058.490 8  82637228.83847  20180845.461                    20180849.801
 120087571.098 6  93574728.68444  22851906.047                    22851911.297
 130635475.217 5 101793862.88842  24859111.234                    24859115.469
 115603166.552 8  90080409.68146  21998555.273                    21998560.301
 126529800.456 6  98594687.69743  24077828.844                    24077837.871
 115010338.091 8  89618490.46846  21885742.039                    21885745.383
 18  5  3  2 52  0.0000000  0 11G29G26G21G09G27G16G14G22G31G03G23
 125509413.678 7  97799563.14444  23883645.047                    23883651.484
 107677934.710 8  83904925.27247  20490424.195                    20490432.344
 133162088.954 5 103762732.52942  25339913.477                    25339920.598
 128546242.033 5 100165889.71642  24461525.344                    24461534.492
 119513737.018 7  93127635.00545  22742702.891                    22742711.000
 106029814.708 8  82620675.24747  20176803.320                    20176807.617
 120187618.667 6  93652687.75344  22870944.195                    22870950.352
 130711512.588 5 101853112.74942  24873580.500                    24873585.594
 115662486.794 8  90126633.22246  22009843.336                    22009848.391
 126600555.037 6  98649821.06443  24091293.203                    24091301.383
 114948734.680 8  89570487.80946  21874019.586                    21874022.492
